[
  {
    "lon": -0.0992682999999488,
    "lat": 51.4976172,
    "end": "2016-03-25T06:00:00",
    "name": "Bedrock: John Digweed",
    "start": "2016-03-24T22:00:00"
  },
  {
    "lon": -0.0115074000000277,
    "lat": 51.5362946,
    "end": "2016-03-26T18:00:00",
    "name": "Soccer Six at Queen Elizabeth Olympic Park",
    "start": "2016-03-26T12:00:00"
  },
  {
    "lon": -0.17747110000004795,
    "lat": 51.5385363,
    "end": "2016-03-23T20:30:00",
    "name": "#TMLondon at @QKynaston 2016",
    "start": "2016-03-23T17:30:00"
  },
  {
    "lon": -0.04401140000004489,
    "lat": 51.5128661,
    "end": "2016-03-27T23:00:00",
    "name": "Ultra White Collar Boxing London 27.3.16",
    "start": "2016-03-27T15:00:00"
  },
  {
    "lon": -0.0993,
    "lat": 51.4976,
    "end": "2016-03-28T05:00:00",
    "name": "Circus Records: Flux Pavilion in Dolby Atmos",
    "start": "2016-03-27T22:00:00"
  },
  {
    "lon": -0.0993,
    "lat": 51.4976,
    "end": "2016-03-26T06:00:00",
    "name": "The Gallery: Blasterjaxx",
    "start": "2016-03-25T22:30:00"
  },
  {
    "lon": -0.15719690000003084,
    "lat": 51.5143912,
    "end": "2016-03-24T22:00:00",
    "name": "VRLO 4 @ Amba Hotels Marble Arch",
    "start": "2016-03-24T19:00:00"
  },
  {
    "lon": -81.2430546,
    "lat": 42.983025,
    "end": "2016-03-29T13:00:00",
    "name": "LHRD 2016: Lunch and The Lucille & Norton Wolf Health Research Lecture Series featuring Dr. Peter Libby",
    "start": "2016-03-29T11:30:00"
  },
  {
    "lon": -0.14333009999995738,
    "lat": 51.4939295,
    "end": "2016-03-24T23:30:00",
    "name": "MBTN London Debate & Easter Party",
    "start": "2016-03-24T18:00:00"
  },
  {
    "lon": -0.1042410000000018,
    "lat": 51.504615,
    "end": "2016-03-24T13:00:00",
    "name": "Development in the face of climate extremes and disasters",
    "start": "2016-03-24T11:30:00"
  },
  {
    "lon": -0.12775829999998223,
    "lat": 51.5073509,
    "end": "2016-04-01T16:00:00",
    "name": "Export Hub in London",
    "start": "2016-03-29T10:00:00"
  },
  {
    "lon": -0.1184158999999454,
    "lat": 51.5195474,
    "end": "2016-03-24T21:00:00",
    "name": "London Thinks - The Theology and Ethics of Star Wars",
    "start": "2016-03-24T19:30:00"
  },
  {
    "lon": -0.1322063000000071,
    "lat": 51.5118512,
    "end": "2016-03-29T22:00:00",
    "name": "East Meets West Professional Networking / 中西精英交流会 @ Century Private Club",
    "start": "2016-03-29T19:00:00"
  },
  {
    "lon": 0.002835000000004584,
    "lat": 51.5430472,
    "end": "2016-03-23T21:00:00",
    "name": "UEL YBEP Presents BE... Unplugged  'How to get ahead in Business'",
    "start": "2016-03-23T18:00:00"
  },
  {
    "lon": -0.08036029999993843,
    "lat": 51.5045093,
    "end": "2016-03-24T20:00:00",
    "name": "Teach First employer presentation - Career Changers & Young Professionals",
    "start": "2016-03-24T18:00:00"
  },
  {
    "lon": -0.1153242,
    "lat": 51.5112879,
    "end": "2016-03-23T19:30:00",
    "name": "John Toulmin Lecture in Law and Psychiatry - The Unexamined Life: Insight and the Law",
    "start": "2016-03-23T18:30:00"
  },
  {
    "lon": -0.13498870000000807,
    "lat": 51.511194,
    "end": "2016-03-23T19:30:00",
    "name": "Transforming Data-Driven Marketing",
    "start": "2016-03-23T15:00:00"
  },
  {
    "lon": -0.08904899999993177,
    "lat": 51.470584,
    "end": "2016-03-24T19:30:00",
    "name": "Imposter Syndrome",
    "start": "2016-03-24T18:00:00"
  },
  {
    "lon": -0.17499079999993228,
    "lat": 51.50154,
    "end": "2016-03-23T21:00:00",
    "name": "Дмитрий Быков «Как сделана \"Война и мир\"»",
    "start": "2016-03-23T19:30:00"
  },
  {
    "lon": -0.08263899999997193,
    "lat": 51.504558,
    "end": "2016-03-26T17:30:00",
    "name": "Divas of colour 2016 trade and fashion show",
    "start": "2016-03-26T12:00:00"
  },
  {
    "lon": -0.1540499999999838,
    "lat": 51.500257,
    "end": "2016-03-24T21:00:00",
    "name": "“I Declare at My Own Risk” - a performance by Alina Serban",
    "start": "2016-03-24T19:00:00"
  },
  {
    "lon": -0.10037099999999555,
    "lat": 51.537169,
    "end": "2016-03-25T02:00:00",
    "name": "Pour It Up *FREE PARTY*",
    "start": "2016-03-24T19:00:00"
  },
  {
    "lon": -0.14425010000002203,
    "lat": 51.4959082,
    "end": "2016-03-28T06:00:00",
    "name": "AGS Easter Sunday Special @ KONNECT",
    "start": "2016-03-27T22:00:00"
  },
  {
    "lon": -0.07552020000002813,
    "lat": 51.40000120000001,
    "end": "2016-03-26T18:00:00",
    "name": "SOUNDS  OF MUSIC - UK GOSPEL CONCERT (in aid of the Homeless)",
    "start": "2016-03-26T13:00:00"
  },
  {
    "lon": -0.08337640000002011,
    "lat": 51.5278006,
    "end": "2016-03-28T23:00:00",
    "name": "Erased Tapes Celebrates Piano Day 2016",
    "start": "2016-03-28T19:00:00"
  },
  {
    "lon": -0.1318579999999656,
    "lat": 51.510471,
    "end": "2016-03-25T22:00:00",
    "name": "Seven Sins",
    "start": "2016-03-25T18:00:00"
  },
  {
    "lon": -0.14682410000000345,
    "lat": 51.5415301,
    "end": "2016-03-24T03:30:00",
    "name": "PuriMental @ Shaka Zulu",
    "start": "2016-03-23T21:00:00"
  },
  {
    "lon": -81.2430546,
    "lat": 42.983025,
    "end": "2016-03-29T18:30:00",
    "name": "LHRD 2016: Wine and Cheese Awards Reception",
    "start": "2016-03-29T17:30:00"
  },
  {
    "lon": -0.19577559999993355,
    "lat": 51.5006217,
    "end": "2016-03-29T21:30:00",
    "name": "Bikeminded Film Club - 29 March 2016",
    "start": "2016-03-29T19:30:00"
  },
  {
    "lon": -0.0039600000000064,
    "lat": 51.483316,
    "end": "2016-04-01T18:00:00",
    "name": "GISRUK 2016 Conference",
    "start": "2016-03-29T14:00:00"
  },
  {
    "lon": -0.05180540000003475,
    "lat": 51.5209849,
    "end": "2016-03-26T17:00:00",
    "name": "Whitechapel CoderDojo - 26th March, 2016",
    "start": "2016-03-26T14:00:00"
  },
  {
    "lon": -0.12353870000004008,
    "lat": 51.4858843,
    "end": "2016-03-28T04:30:00",
    "name": "RED EYE - Easter Sunday",
    "start": "2016-03-27T22:00:00"
  },
  {
    "lon": -0.20384409999996933,
    "lat": 51.51417379999999,
    "end": "2016-03-29T20:00:00",
    "name": "how to:  An Evening with Nobel Peace Prize Winner: Shirin Ebadi (Dr. Shirin Ebadi in conversation with Azadeh Moaveni)",
    "start": "2016-03-29T18:45:00"
  },
  {
    "lon": -0.1338556000000608,
    "lat": 51.510835,
    "end": "2016-03-30T21:30:00",
    "name": "#SuperWomenNight - London",
    "start": "2016-03-30T18:00:00"
  },
  {
    "lon": -0.07785400000000209,
    "lat": 51.520454,
    "end": "2016-03-23T22:00:00",
    "name": "Diversity and the digital skills gap, a super wicked problem",
    "start": "2016-03-23T18:30:00"
  },
  {
    "lon": -0.06997479999995448,
    "lat": 51.5156447,
    "end": "2016-11-16T16:00:00",
    "name": "BA (Hons) Architecture (K100)",
    "start": "2016-03-23T14:00:00"
  },
  {
    "lon": -0.07066099999997277,
    "lat": 51.5196473,
    "end": "2016-03-23T20:15:00",
    "name": "Nail the sale (part 1): Selling in B2B markets",
    "start": "2016-03-23T18:15:00"
  },
  {
    "lon": -0.08542199999999411,
    "lat": 51.520657,
    "end": "2016-03-30T20:00:00",
    "name": "Liverpool in London Spring Business Club - 30th March 2016",
    "start": "2016-03-30T18:00:00"
  },
  {
    "lon": -0.21879409999996824,
    "lat": 51.5037627,
    "end": "2016-03-26T18:00:00",
    "name": "GamePad! Spring Edition 2016",
    "start": "2016-03-26T12:00:00"
  },
  {
    "lon": -0.05492100000003575,
    "lat": 51.534794,
    "end": "2016-03-24T20:30:00",
    "name": "CREATIVITY WORKS FASHION 2016: POP UP COLLECTION SHOWCASE AND GRADUATION",
    "start": "2016-03-24T18:00:00"
  },
  {
    "lon": -0.1286324999999806,
    "lat": 51.51016229999999,
    "end": "2016-03-24T20:30:00",
    "name": "Global Academy Open Evening - Leicester Square",
    "start": "2016-03-24T18:30:00"
  },
  {
    "lon": -0.12480110000001332,
    "lat": 51.51484749999999,
    "end": "2016-03-24T21:00:00",
    "name": "Robi Walters 365: Every Day Counts",
    "start": "2016-03-24T18:00:00"
  },
  {
    "lon": -0.15064359999996668,
    "lat": 51.5188673,
    "end": "2016-03-23T20:30:00",
    "name": "Ally Capellino X tokyobike",
    "start": "2016-03-23T18:30:00"
  },
  {
    "lon": -0.11737659999994321,
    "lat": 51.5144077,
    "end": "2016-03-24T21:00:00",
    "name": "Italian Forum 2016 - The Italian North-South divide in a European perspective",
    "start": "2016-03-23T19:00:00"
  },
  {
    "lon": -0.08962870000004841,
    "lat": 51.5027999,
    "end": "2016-03-23T18:00:00",
    "name": "Burton Lecture",
    "start": "2016-03-23T16:00:00"
  },
  {
    "lon": -0.1456485999999586,
    "lat": 51.5412634,
    "end": "2016-03-25T03:00:00",
    "name": "RDR 9th Anniversary &  D Riddim Tribe Notting Hill Carnival Launch - UTOPIA",
    "start": "2016-03-24T21:00:00"
  },
  {
    "lon": -0.0817227999999659,
    "lat": 51.5274499,
    "end": "2016-03-28T03:00:00",
    "name": "Hip Hop Karaoke Easter Sunday Bank Holiday Special @ Hoxton Square Bar & Kitchen",
    "start": "2016-03-27T20:00:00"
  },
  {
    "lon": -0.14711899999997513,
    "lat": 51.507632,
    "end": "2016-03-23T21:00:00",
    "name": "Proactive One2One Forum - 23rd March",
    "start": "2016-03-23T18:00:00"
  },
  {
    "lon": -0.10318440000003193,
    "lat": 51.52007330000001,
    "end": "2016-03-23T20:30:00",
    "name": "Long Distance Cycling Evening",
    "start": "2016-03-23T18:30:00"
  },
  {
    "lon": 0.004297899999983201,
    "lat": 51.5427573,
    "end": "2016-03-24T21:00:00",
    "name": "STRATFORD & WEST HAM COMMUNITY CINEMA: SUFFRAGETTE FOLLOWED BY PANEL",
    "start": "2016-03-24T18:00:00"
  },
  {
    "lon": -0.1797,
    "lat": 51.4999,
    "end": "2016-03-25T22:00:00",
    "name": "Concert featuring the Bulgarian pianist Svetoslav Todorov",
    "start": "2016-03-25T19:00:00"
  },
  {
    "lon": -0.1460273000000143,
    "lat": 51.5159848,
    "end": "2016-03-30T16:30:00",
    "name": "Building Tomorrow’s Unions",
    "start": "2016-03-30T09:30:00"
  },
  {
    "lon": -0.08630049999999301,
    "lat": 51.5044184,
    "end": "2016-03-23T21:00:00",
    "name": "The FINTECH Book Launch (Receive your signed Copy prior to official Release)",
    "start": "2016-03-23T18:00:00"
  },
  {
    "lon": -0.1318579999999656,
    "lat": 51.510471,
    "end": "2016-03-26T22:00:00",
    "name": "Showtime Cabaret",
    "start": "2016-03-26T18:00:00"
  },
  {
    "lon": -0.08771990000002461,
    "lat": 51.5111335,
    "end": "2016-03-30T21:30:00",
    "name": "myHRparty: networking",
    "start": "2016-03-30T18:30:00"
  },
  {
    "lon": -0.07215629999996054,
    "lat": 51.5147582,
    "end": "2016-03-23T22:00:00",
    "name": "How to give your start-up the best chance of survival",
    "start": "2016-03-23T18:00:00"
  },
  {
    "lon": -0.14521400000000995,
    "lat": 51.521252,
    "end": "2016-03-29T20:40:00",
    "name": "International Dialogues: Yasmeen Lari with Razia Iqbal",
    "start": "2016-03-29T19:00:00"
  },
  {
    "lon": -0.08513459999994666,
    "lat": 51.5132819,
    "end": "2016-03-30T22:00:00",
    "name": "RANT Forum London - March",
    "start": "2016-03-30T17:30:00"
  },
  {
    "lon": -0.1413403000000244,
    "lat": 51.5077338,
    "end": "2016-03-25T01:30:00",
    "name": "Exclusive Networking & cocktail Party at The Mahiki London +Complimentary entry&Cocktail",
    "start": "2016-03-24T19:00:00"
  },
  {
    "lon": -0.13179439999998976,
    "lat": 51.5218954,
    "end": "2016-03-23T20:00:00",
    "name": "UCL Information Security - 'The Road Ahead'",
    "start": "2016-03-23T17:30:00"
  },
  {
    "lon": -0.127083999999968,
    "lat": 51.5099161,
    "end": "2016-03-23T22:00:00",
    "name": "Tony Morris - The Filmaker's Legal Guide @ LIBRARY Members Club",
    "start": "2016-03-23T18:30:00"
  },
  {
    "lon": -81.23040700000001,
    "lat": 42.9535109,
    "end": "2016-03-23T21:00:00",
    "name": "The Flip Flop Mindset with Danielle Daniel",
    "start": "2016-03-23T19:00:00"
  },
  {
    "lon": -0.06997479999995448,
    "lat": 51.5156447,
    "end": "2016-11-16T12:00:00",
    "name": "BA (Hons) Film and Broadcast Production (P313)",
    "start": "2016-03-23T10:00:00"
  },
  {
    "lon": -0.07617310000000543,
    "lat": 51.5235958,
    "end": "2016-03-25T22:00:00",
    "name": "The FriendZone | sponsored by Brothers Cider (Good Friday)",
    "start": "2016-03-25T19:00:00"
  },
  {
    "lon": -0.1425762000000077,
    "lat": 51.52217049999999,
    "end": "2016-03-30T21:00:00",
    "name": "Baker Street Property Meet",
    "start": "2016-03-30T18:00:00"
  },
  {
    "lon": -0.06997479999995448,
    "lat": 51.5156447,
    "end": "2016-11-16T12:00:00",
    "name": "BA (Hons) Graphic Design (W214)",
    "start": "2016-03-23T10:00:00"
  },
  {
    "lon": -0.2053889999999683,
    "lat": 51.5110287,
    "end": "2016-03-25T23:30:00",
    "name": "CARNIVAL SUNDAY CELEBRATING 50 YEARS",
    "start": "2016-03-25T00:30:00"
  },
  {
    "lon": -0.06997479999995448,
    "lat": 51.5156447,
    "end": "2016-11-16T16:00:00",
    "name": "BA (Hons) Fashion (W231)",
    "start": "2016-03-23T14:00:00"
  },
  {
    "lon": -0.08263899999997193,
    "lat": 51.504558,
    "end": "2016-03-26T22:30:00",
    "name": "Divas of colour 2016 awards night",
    "start": "2016-03-26T16:00:00"
  },
  {
    "lon": -0.0516299999999319,
    "lat": 51.52098899999999,
    "end": "2016-03-29T20:00:00",
    "name": "Blockchain and Finance, Future Innovations",
    "start": "2016-03-29T17:30:00"
  },
  {
    "lon": -0.4755440000000135,
    "lat": 51.54515670000001,
    "end": "2016-03-23T20:00:00",
    "name": "Hillingdon on Film",
    "start": "2016-03-23T19:00:00"
  },
  {
    "lon": -0.17892929999993612,
    "lat": 51.5117552,
    "end": "2016-03-23T21:30:00",
    "name": "ThetaHealing® Meditation Evening & Energy Clearing: Manifesting Your Dreams",
    "start": "2016-03-23T20:00:00"
  },
  {
    "lon": -0.04291939999995975,
    "lat": 51.55023869999999,
    "end": "2016-03-24T21:00:00",
    "name": "The Tailor of Inverness",
    "start": "2016-03-24T19:45:00"
  },
  {
    "lon": -0.13023410000005242,
    "lat": 51.51112759999999,
    "end": "2016-03-26T03:00:00",
    "name": "Easter Ting – The Good Friday Fete brought to you by Socaholic & Ucom UnitedColours OfMas",
    "start": "2016-03-25T21:00:00"
  },
  {
    "lon": -0.06997479999995448,
    "lat": 51.5156447,
    "end": "2016-11-16T12:00:00",
    "name": "BA (Hons) Illustration (W220)",
    "start": "2016-03-23T10:00:00"
  },
  {
    "lon": -0.11599699999999302,
    "lat": 51.5114864,
    "end": "2016-03-23T20:00:00",
    "name": "The Political Day, by Professor Amanda Vickery",
    "start": "2016-03-23T18:30:00"
  },
  {
    "lon": -81.29347619999999,
    "lat": 42.9449777,
    "end": "2016-03-30T21:00:00",
    "name": "Promoting Active Outdoor Play: Benefits, Risks and Challenges",
    "start": "2016-03-30T19:00:00"
  },
  {
    "lon": -0.06997479999995448,
    "lat": 51.5156447,
    "end": "2016-11-16T12:00:00",
    "name": "BA (Hons) Photography (W641)",
    "start": "2016-03-23T10:00:00"
  },
  {
    "lon": -81.26349829999998,
    "lat": 43.0085587,
    "end": "2016-03-23T19:30:00",
    "name": "Western Information Specialties Night",
    "start": "2016-03-23T17:30:00"
  },
  {
    "lon": -0.00851139999997485,
    "lat": 51.4817229,
    "end": "2016-03-23T21:30:00",
    "name": "Diversity & Inclusion",
    "start": "2016-03-23T18:30:00"
  },
  {
    "lon": -0.13338320000002568,
    "lat": 51.5125122,
    "end": "2016-03-24T22:30:00",
    "name": "London French Societies: End of Year Party",
    "start": "2016-03-24T18:30:00"
  },
  {
    "lon": -0.06125250000002325,
    "lat": 51.5325673,
    "end": "2016-03-30T20:00:00",
    "name": "Sensory Science and Common Business Practises",
    "start": "2016-03-30T18:00:00"
  },
  {
    "lon": -0.1028719999999339,
    "lat": 51.52207,
    "end": "2016-03-23T20:30:00",
    "name": "Public Lecture: Souvenirs of the Sepulchre",
    "start": "2016-03-23T17:30:00"
  },
  {
    "lon": -0.06997479999995448,
    "lat": 51.5156447,
    "end": "2016-11-16T12:00:00",
    "name": "BA (Hons) Fine Art (W101)",
    "start": "2016-03-23T10:00:00"
  },
  {
    "lon": -0.06997479999995448,
    "lat": 51.5156447,
    "end": "2016-11-16T16:00:00",
    "name": "Extended Degree Art and Design (with Foundation Year) (W000)",
    "start": "2016-03-23T14:00:00"
  },
  {
    "lon": -0.18176080000000638,
    "lat": 51.5195997,
    "end": "2016-03-30T20:30:00",
    "name": "//Build 2016 Keynote Hangout",
    "start": "2016-03-30T16:30:00"
  },
  {
    "lon": -81.27373399999999,
    "lat": 43.009597,
    "end": "2016-03-23T20:00:00",
    "name": "WMA Analytics All-Stars!",
    "start": "2016-03-23T18:00:00"
  },
  {
    "lon": -0.0534663,
    "lat": 51.5013563,
    "end": "2016-03-23T22:30:00",
    "name": "EL NAAN CONCERT",
    "start": "2016-03-23T19:30:00"
  },
  {
    "lon": -0.10584619999997358,
    "lat": 51.5209559,
    "end": "2016-03-24T10:30:00",
    "name": "SxSW Hangover with GADM, Nice + Karmarama",
    "start": "2016-03-24T08:30:00"
  },
  {
    "lon": -0.07195820000004005,
    "lat": 51.51474289999999,
    "end": "2016-03-24T21:00:00",
    "name": "The Journey of Data into AdTech Systems",
    "start": "2016-03-24T18:00:00"
  },
  {
    "lon": -0.11295989999996436,
    "lat": 51.4681771,
    "end": "2016-03-30T17:00:00",
    "name": "HCA Care Certificate",
    "start": "2016-03-30T12:30:00"
  },
  {
    "lon": -0.1274,
    "lat": 51.5113,
    "end": "2016-03-30T21:00:00",
    "name": "Charity Drinks & Networking: Don’t Work Harder – Just Get Noticed",
    "start": "2016-03-30T18:00:00"
  },
  {
    "lon": -0.05207989999996698,
    "lat": 51.5209469,
    "end": "2016-03-23T21:00:00",
    "name": "Debating the problems of crowdfunding",
    "start": "2016-03-23T18:00:00"
  },
  {
    "lon": -0.1341783000000305,
    "lat": 51.5110152,
    "end": "2016-03-28T03:00:00",
    "name": "Back2Reality - The Easter Event",
    "start": "2016-03-27T20:00:00"
  },
  {
    "lon": -0.11199169999997594,
    "lat": 51.4632142,
    "end": "2016-03-30T21:00:00",
    "name": "somewhereto_Hatch A Plan: London",
    "start": "2016-03-30T18:00:00"
  },
  {
    "lon": -0.1797,
    "lat": 51.4999,
    "end": "2016-03-30T22:00:00",
    "name": "The Petrov File - Досието Петров",
    "start": "2016-03-30T19:00:00"
  },
  {
    "lon": -0.11941330000001926,
    "lat": 51.5111388,
    "end": "2016-03-24T20:00:00",
    "name": "Evening Physics Lectures at King's College London",
    "start": "2016-03-24T18:30:00"
  },
  {
    "lon": -0.1413403000000244,
    "lat": 51.5077338,
    "end": "2016-03-28T03:00:00",
    "name": "Cambridge Boat Race After Party",
    "start": "2016-03-27T22:00:00"
  },
  {
    "lon": -0.03433649999999488,
    "lat": 51.5099526,
    "end": "2016-03-30T22:00:00",
    "name": "Hanson Lecture: Dick Durham",
    "start": "2016-03-30T19:00:00"
  },
  {
    "lon": -0.12209699999993973,
    "lat": 51.520093,
    "end": "2016-03-29T21:00:00",
    "name": "Coaching for Resilience",
    "start": "2016-03-29T19:00:00"
  },
  {
    "lon": -0.06997479999995448,
    "lat": 51.5156447,
    "end": "2016-11-16T16:00:00",
    "name": "Extended Degree Architecture and Interior Design (with Foundation Year) (KW12)",
    "start": "2016-03-23T14:00:00"
  },
  {
    "lon": -0.04291939999995975,
    "lat": 51.55023869999999,
    "end": "2016-03-23T21:00:00",
    "name": "The Tailor of Inverness",
    "start": "2016-03-23T19:45:00"
  },
  {
    "lon": -0.10984889999997449,
    "lat": 51.5065177,
    "end": "2016-03-24T20:30:00",
    "name": "Public Lecture & Documentary Screening: “Banished and Persecuted in their Own Land: How Crimean Tatars Stand Up to Repression in Russia-Occupied Crimea”, 24 March 2016, King's College London",
    "start": "2016-03-24T18:15:00"
  },
  {
    "lon": -0.05468580000001566,
    "lat": 51.5296617,
    "end": "2016-03-25T00:00:00",
    "name": "WHITE COLLAR BOXING",
    "start": "2016-03-24T18:30:00"
  },
  {
    "lon": -0.3093659999999545,
    "lat": 51.511506,
    "end": "2016-03-24T20:30:00",
    "name": "‘Man Down? Stand Up!’ Innovation Lab",
    "start": "2016-03-24T18:30:00"
  },
  {
    "lon": -0.0992682999999488,
    "lat": 51.4976172,
    "end": "2016-03-27T07:00:00",
    "name": "Rinse Presents Santé & Josh Butler",
    "start": "2016-03-26T23:00:00"
  },
  {
    "lon": -0.05855829999995876,
    "lat": 51.5393628,
    "end": "2016-03-27T21:00:00",
    "name": "MoChíc Events Exclusive Launch & Fundraising Evening",
    "start": "2016-03-27T17:00:00"
  },
  {
    "lon": -0.06997479999995448,
    "lat": 51.5156447,
    "end": "2016-11-16T16:00:00",
    "name": "BA (Hons) Interior Architecture and Design (W250)",
    "start": "2016-03-23T14:00:00"
  },
  {
    "lon": -0.12188100000003033,
    "lat": 51.486372,
    "end": "2016-03-26T03:15:00",
    "name": "PUSH THE BUTTON! I FEEL LIKE A WOMAN!",
    "start": "2016-03-25T21:00:00"
  },
  {
    "lon": -81.24321700000002,
    "lat": 42.984433,
    "end": "2016-03-30T09:00:00",
    "name": "Breakfast with Kate Young, MP, Parliamentary Secretary to the Minister of Transport",
    "start": "2016-03-30T07:30:00"
  },
  {
    "lon": -0.09088459999998122,
    "lat": 51.4672414,
    "end": "2016-03-23T19:15:00",
    "name": "Living with the Lights On",
    "start": "2016-03-23T17:45:00"
  },
  {
    "lon": -0.08020799999997053,
    "lat": 51.525999,
    "end": "2016-03-29T22:00:00",
    "name": "The Ultimate Music/Media Industry Networking Night - London",
    "start": "2016-03-29T19:00:00"
  },
  {
    "lon": -0.0828258999999889,
    "lat": 51.513565,
    "end": "2016-03-23T20:30:00",
    "name": "Jibber Jabber - 23rd March",
    "start": "2016-03-23T18:00:00"
  },
  {
    "lon": -0.04037449999998444,
    "lat": 51.5240671,
    "end": "2016-03-23T20:30:00",
    "name": "CLSGC Policy Lecture: 'The Politics of Climate Change Negotiation’ by Dr Dan Bondi Ogolla",
    "start": "2016-03-23T18:30:00"
  },
  {
    "lon": -0.11381040000003395,
    "lat": 51.4826051,
    "end": "2016-03-24T20:30:00",
    "name": "Eyes with No Barriers screening/ Paper Project show screening",
    "start": "2016-03-24T18:30:00"
  },
  {
    "lon": -0.06809880000002977,
    "lat": 51.469832,
    "end": "2016-03-30T23:30:00",
    "name": "VICTORIA - PREVIEW & LAUNCH PARTY",
    "start": "2016-03-30T19:00:00"
  },
  {
    "lon": -0.08750499999996464,
    "lat": 51.52124130000001,
    "end": "2016-03-24T21:00:00",
    "name": "Runway Easter Party!",
    "start": "2016-03-24T18:15:00"
  },
  {
    "lon": -0.04345869999997376,
    "lat": 51.55736539999999,
    "end": "2016-04-01T15:30:00",
    "name": "FRUK Forest School Easter Holiday Club 2016",
    "start": "2016-03-29T09:30:00"
  },
  {
    "lon": -0.15401429999997163,
    "lat": 51.5003329,
    "end": "2016-03-30T22:00:00",
    "name": "Andrei Blaier’s  “Through the Ashes of the Empire” at the Romanian Cinematheque",
    "start": "2016-03-30T19:00:00"
  },
  {
    "lon": -0.13921110000001136,
    "lat": 51.5084988,
    "end": "2016-03-23T15:30:00",
    "name": "Eiko Honda: 'Japanese Nature? Between Language and Landscape'",
    "start": "2016-03-23T14:00:00"
  },
  {
    "lon": -0.03540799999996125,
    "lat": 51.47427099999999,
    "end": "2016-03-23T20:30:00",
    "name": "Silent Faces present... 'Follow Suit'",
    "start": "2016-03-23T19:30:00"
  },
  {
    "lon": -0.1286324999999806,
    "lat": 51.5101623,
    "end": "2016-03-29T17:00:00",
    "name": "Global Academy Open Day for Teachers",
    "start": "2016-03-29T15:00:00"
  },
  {
    "lon": -0.0849402999999711,
    "lat": 51.5218759,
    "end": "2016-03-23T20:30:00",
    "name": "R-Ladies Coding Club: March Workshop for R Novices",
    "start": "2016-03-23T18:30:00"
  },
  {
    "lon": -0.10249880000003486,
    "lat": 51.5396629,
    "end": "2016-03-29T13:15:00",
    "name": "Islington Fraud, Doorstep Crime and Distraction Burglary Awareness Event",
    "start": "2016-03-29T09:45:00"
  },
  {
    "lon": -0.08904899999993177,
    "lat": 51.470584,
    "end": "2016-03-23T13:30:00",
    "name": "LGBT and Mental Health",
    "start": "2016-03-23T12:00:00"
  },
  {
    "lon": -0.14113670000006096,
    "lat": 51.5181953,
    "end": "2016-03-24T21:30:00",
    "name": "The 1916 Easter Rising in History and Memory",
    "start": "2016-03-24T18:30:00"
  },
  {
    "lon": -0.06997479999995448,
    "lat": 51.5156447,
    "end": "2016-11-16T16:00:00",
    "name": "BA (Hons) Textile Design (W2J4)",
    "start": "2016-03-23T14:00:00"
  },
  {
    "lon": 0.002426000000014028,
    "lat": 51.538169,
    "end": "2016-03-24T18:00:00",
    "name": "School 21 Exhibition of Beautiful Work - Spring 2016",
    "start": "2016-03-24T16:30:00"
  },
  {
    "lon": -0.09956290000002355,
    "lat": 51.5027866,
    "end": "2016-03-30T15:00:00",
    "name": "Communities: at the heart of healthy homes",
    "start": "2016-03-30T10:30:00"
  },
  {
    "lon": -0.00872800000001916,
    "lat": 51.58395700000001,
    "end": "2016-03-30T22:00:00",
    "name": "Joe Gideon & Jim Sclavunos",
    "start": "2016-03-30T19:30:00"
  },
  {
    "lon": -0.08688240000003589,
    "lat": 51.5277725,
    "end": "2016-03-23T21:00:00",
    "name": "Sales Hacker Meetup: How to Scale your Tech Sales Team",
    "start": "2016-03-23T18:30:00"
  },
  {
    "lon": -0.1175213999999869,
    "lat": 51.5215284,
    "end": "2016-03-24T16:00:00",
    "name": "Where is the evidence that Artificial Intelligence can benefit education?",
    "start": "2016-03-24T13:00:00"
  },
  {
    "lon": -0.06997479999995448,
    "lat": 51.5156447,
    "end": "2016-11-16T16:00:00",
    "name": "BA (Hons) Interior Design (WK21)",
    "start": "2016-03-23T14:00:00"
  },
  {
    "lon": -0.08995860000004541,
    "lat": 51.52209939999999,
    "end": "2016-03-24T21:00:00",
    "name": "Executive Insight Leadership Masterclass",
    "start": "2016-03-24T18:00:00"
  },
  {
    "lon": 0.002835000000004584,
    "lat": 51.5430472,
    "end": "2016-03-24T21:00:00",
    "name": "Book Launch",
    "start": "2016-03-24T18:00:00"
  },
  {
    "lon": -0.11599699999999302,
    "lat": 51.5114864,
    "end": "2016-03-23T20:00:00",
    "name": "Who Cares about Regulatory Space in BITs? A Comparative International Approach",
    "start": "2016-03-23T18:30:00"
  },
  {
    "lon": -0.09867399999995996,
    "lat": 51.493044,
    "end": "2016-03-23T22:00:00",
    "name": "Pizza & Politics with Heidi and Neil - a Lambeth & Southwark GLA fundraiser",
    "start": "2016-03-23T19:00:00"
  },
  {
    "lon": -0.057479,
    "lat": 51.5196851,
    "end": "2016-03-29T20:30:00",
    "name": "Sales Techniques Masterclass",
    "start": "2016-03-29T18:30:00"
  },
  {
    "lon": -0.04016269999999622,
    "lat": 51.5229357,
    "end": "2016-03-23T18:00:00",
    "name": "Third Year Celebration Event 2016",
    "start": "2016-03-23T16:00:00"
  },
  {
    "lon": -0.08750499999996464,
    "lat": 51.52124130000001,
    "end": "2016-03-23T22:00:00",
    "name": "Intel Workshop: Prototyping IoT Products with the Edison Board (50 seats)",
    "start": "2016-03-23T18:00:00"
  },
  {
    "lon": -0.08962870000004841,
    "lat": 51.5027999,
    "end": "2016-03-24T20:00:00",
    "name": "Behind the Label",
    "start": "2016-03-24T18:00:00"
  },
  {
    "lon": -0.11861169999997401,
    "lat": 51.5106458,
    "end": "2016-03-24T20:30:00",
    "name": "Marathon Ready Talks: Tapering & Final Tips",
    "start": "2016-03-24T18:30:00"
  },
  {
    "lon": -0.14264720000005582,
    "lat": 51.54095299999999,
    "end": "2016-03-23T22:00:00",
    "name": "Start-ups' pitch in front of Investors",
    "start": "2016-03-23T18:00:00"
  },
  {
    "lon": -0.14358760000004622,
    "lat": 51.52074220000001,
    "end": "2016-03-29T18:30:00",
    "name": "Public Service News & Digital Media",
    "start": "2016-03-29T17:00:00"
  },
  {
    "lon": -0.09421999999995023,
    "lat": 51.51585,
    "end": "2016-03-30T20:30:00",
    "name": "BANG London Monthly Event",
    "start": "2016-03-30T17:30:00"
  },
  {
    "lon": -0.13453830000003109,
    "lat": 51.5228394,
    "end": "2016-03-23T16:00:00",
    "name": "UCL Cancer Institute Open Day: MSc Cancer",
    "start": "2016-03-23T14:00:00"
  },
  {
    "lon": -0.13264730000003055,
    "lat": 51.5224498,
    "end": "2016-03-23T19:00:00",
    "name": "Oratory and Rhetoric: Ancient to Early Modern",
    "start": "2016-03-23T15:00:00"
  },
  {
    "lon": 0.002678800000012415,
    "lat": 51.54330059999999,
    "end": "2016-03-24T12:30:00",
    "name": "Skills Academy - Effective Interviews",
    "start": "2016-03-24T10:30:00"
  },
  {
    "lon": -0.07731949999993049,
    "lat": 51.52562259999999,
    "end": "2016-03-29T22:00:00",
    "name": "The WW Club Live Podcast with Broadly's Zing Tsjeng",
    "start": "2016-03-29T20:00:00"
  },
  {
    "lon": -0.09796890000006897,
    "lat": 51.53973999999999,
    "end": "2016-03-26T15:30:00",
    "name": "PYP CREATIVES",
    "start": "2016-03-26T13:30:00"
  },
  {
    "lon": -0.1682332000000315,
    "lat": 51.5554818,
    "end": "2016-03-27T16:00:00",
    "name": "Keats House Poets Present… Karen McCarthy Woolf and Deanna Rodger",
    "start": "2016-03-27T14:00:00"
  },
  {
    "lon": -0.0534663,
    "lat": 51.5013563,
    "end": "2016-03-29T23:00:00",
    "name": "THE GREAT DICTATOR (1940)",
    "start": "2016-03-29T20:30:00"
  },
  {
    "lon": -0.14065019999998185,
    "lat": 51.5251088,
    "end": "2016-03-30T17:00:00",
    "name": "Intelligent Threats / Intelligent Solutions",
    "start": "2016-03-30T09:00:00"
  },
  {
    "lon": -0.07853739999995923,
    "lat": 51.5369177,
    "end": "2016-03-23T22:00:00",
    "name": "'Neuro-enhancement: Mirage or Miracle?' (Special Edition 'Dialogue')",
    "start": "2016-03-23T19:00:00"
  },
  {
    "lon": -0.09558370000002014,
    "lat": 51.5051243,
    "end": "2016-03-24T12:30:00",
    "name": "Preparing for Revalidation: Workshop For Nurses in Social & Primary Care",
    "start": "2016-03-24T09:00:00"
  },
  {
    "lon": -0.04024500000002717,
    "lat": 51.471022,
    "end": "2016-03-23T14:00:00",
    "name": "Service & Product Design-led Innovation Workshop for Creative & Digital Businesses at Goldsmiths, University of London",
    "start": "2016-03-23T10:00:00"
  },
  {
    "lon": -0.1117940000000317,
    "lat": 51.50543,
    "end": "2016-03-23T16:00:00",
    "name": "Unconscious Bias Seminar",
    "start": "2016-03-23T14:30:00"
  },
  {
    "lon": -0.19556299999999283,
    "lat": 51.5148565,
    "end": "2016-03-28T01:30:00",
    "name": "Got Soul Easter Special - Bank Holiday Sun 27th March",
    "start": "2016-03-27T19:30:00"
  },
  {
    "lon": -0.08338300000002619,
    "lat": 51.525852,
    "end": "2016-03-28T03:00:00",
    "name": "The Kreyol Rendez Vous - Live Performances by TIWONY/SONIA DERSION/S.RISE/KAKO + Afterparty",
    "start": "2016-03-27T21:00:00"
  },
  {
    "lon": -0.09830009999996037,
    "lat": 51.512682,
    "end": "2016-03-29T21:30:00",
    "name": "Fashion show and networking night",
    "start": "2016-03-29T18:00:00"
  },
  {
    "lon": -0.1413479999999936,
    "lat": 51.496378,
    "end": "2016-03-29T21:00:00",
    "name": "The Buyers Den",
    "start": "2016-03-29T18:00:00"
  },
  {
    "lon": -0.1318,
    "lat": 51.5079,
    "end": "2016-03-29T20:00:00",
    "name": "Mind Lab Workshop",
    "start": "2016-03-29T18:30:00"
  },
  {
    "lon": -0.1360336999999845,
    "lat": 51.5091781,
    "end": "2016-03-23T20:30:00",
    "name": "Multilingual Imaginations: Asymptote's 5th Anniversary Celebration",
    "start": "2016-03-23T19:00:00"
  },
  {
    "lon": -0.08208200000001398,
    "lat": 51.515517,
    "end": "2016-03-23T20:30:00",
    "name": "Singing in the City Spring Concert",
    "start": "2016-03-23T19:15:00"
  },
  {
    "lon": -0.1273782000000665,
    "lat": 51.5128709,
    "end": "2016-03-24T11:00:00",
    "name": "i-genius Cafe London, 24th March 2016, 9:00am-11:00am",
    "start": "2016-03-24T09:00:00"
  },
  {
    "lon": -0.09634389999996529,
    "lat": 51.5718998,
    "end": "2016-03-23T22:00:00",
    "name": "BearFunny 118 - Weirdos Collective presents THE TWEE MUSKETEERS: A New Play",
    "start": "2016-03-23T20:30:00"
  },
  {
    "lon": -0.18334600000002865,
    "lat": 51.493344,
    "end": "2016-03-25T00:00:00",
    "name": "Intercollegiate Arab Soc Ball 2016!",
    "start": "2016-03-24T20:00:00"
  },
  {
    "lon": 0.002678800000012415,
    "lat": 51.54330059999999,
    "end": "2016-03-23T15:30:00",
    "name": "Skills Academy - Management and Leadership",
    "start": "2016-03-23T13:30:00"
  },
  {
    "lon": -0.15497349999998278,
    "lat": 51.52235229999999,
    "end": "2016-03-24T20:30:00",
    "name": "RIBA approved CPD ‘Commercial Daylighting’ and on Commercial VELUX rooflight system",
    "start": "2016-03-24T18:30:00"
  },
  {
    "lon": -0.1786346000000094,
    "lat": 51.469469,
    "end": "2016-03-30T09:45:00",
    "name": "Wandsworth Chamber Big Breakfast 30th March 2016",
    "start": "2016-03-30T07:30:00"
  },
  {
    "lon": 0.002678800000012415,
    "lat": 51.54330059999999,
    "end": "2016-03-23T12:30:00",
    "name": "Skills Academy - Networking Skills",
    "start": "2016-03-23T10:30:00"
  },
  {
    "lon": -0.07336380000003828,
    "lat": 51.55122859999999,
    "end": "2016-03-23T20:30:00",
    "name": "Beginners Level: Start the Journey from the Complete Start",
    "start": "2016-03-23T18:30:00"
  },
  {
    "lon": -0.11941330000001926,
    "lat": 51.5111388,
    "end": "2016-03-23T20:00:00",
    "name": "The Liberation of the I/Eye: Nonhuman Vision",
    "start": "2016-03-23T18:30:00"
  },
  {
    "lon": -0.13010180000003402,
    "lat": 51.5105008,
    "end": "2016-03-24T17:30:00",
    "name": "The Naked Truth Film Club Presents The UK Premiere Screening Of THE UNSLUT PROJECT and Q&A",
    "start": "2016-03-24T15:30:00"
  },
  {
    "lon": -0.04037449999998444,
    "lat": 51.5240671,
    "end": "2016-03-30T18:30:00",
    "name": "New Book Forum: 'Understanding the Nature of Law' by Professor Michael Giudice",
    "start": "2016-03-30T16:00:00"
  },
  {
    "lon": -0.10037890000000971,
    "lat": 51.5372152,
    "end": "2016-03-30T23:00:00",
    "name": "Spring 2016 March @ The Old Queens Head | Jarlath Henderson Album Launch & Nessi Gomes",
    "start": "2016-03-30T20:00:00"
  },
  {
    "lon": 0.002678800000012415,
    "lat": 51.54330059999999,
    "end": "2016-03-23T12:30:00",
    "name": "Skills Academy - Negotiation Skills",
    "start": "2016-03-23T10:30:00"
  },
  {
    "lon": 0.004716000000030363,
    "lat": 51.52246,
    "end": "2016-03-23T22:00:00",
    "name": "Heaven Adores You Screening + Q&A",
    "start": "2016-03-23T19:00:00"
  },
  {
    "lon": -0.04688379999993231,
    "lat": 51.5279523,
    "end": "2016-03-26T16:30:00",
    "name": "The Psychology of Staying motivated",
    "start": "2016-03-26T13:00:00"
  },
  {
    "lon": -0.14832730000000538,
    "lat": 51.5042899,
    "end": "2016-03-29T21:00:00",
    "name": "Portugal, the Great War, and the Anglo-Portuguese Alliance: A lecture to mark the 100th anniversary of Germany's declaration of war on Portugal",
    "start": "2016-03-29T19:00:00"
  },
  {
    "lon": -0.1743108000000575,
    "lat": 51.4992331,
    "end": "2016-03-30T21:30:00",
    "name": "SONDERVORSTELLUNG – Victoria / SPECIAL PREVIEW – Victoria",
    "start": "2016-03-30T19:00:00"
  },
  {
    "lon": -0.06997479999995448,
    "lat": 51.5156447,
    "end": "2016-11-16T12:00:00",
    "name": "Extended Degree Film, Photography and Media (with Foundation Year) (W004)",
    "start": "2016-03-23T10:00:00"
  },
  {
    "lon": -0.06997479999995448,
    "lat": 51.5156447,
    "end": "2016-12-07T20:00:00",
    "name": "Extended Degree Fashion and Textiles (with Foundation Year) (W003)",
    "start": "2016-03-23T14:00:00"
  },
  {
    "lon": -71.95083399999999,
    "lat": 43.4036021,
    "end": "2016-03-26T21:00:00",
    "name": "Marshall Crane's Boston Marathon Fundraiser",
    "start": "2016-03-26T18:00:00"
  },
  {
    "lon": -0.05470339999999396,
    "lat": 51.5556086,
    "end": "2016-03-28T00:00:00",
    "name": "The Turbans Surprise Big Dinner and Jam",
    "start": "2016-03-27T18:00:00"
  },
  {
    "lon": 0.1099927000000207,
    "lat": 51.5667159,
    "end": "2016-03-28T20:15:00",
    "name": "Streams of Paradise: Signs of the day of judgement - London",
    "start": "2016-03-28T17:15:00"
  },
  {
    "lon": -0.08524510000006558,
    "lat": 51.5060532,
    "end": "2016-03-30T18:00:00",
    "name": "Personal Branding Master Class",
    "start": "2016-03-30T16:00:00"
  },
  {
    "lon": -0.09193800000002739,
    "lat": 51.4757066,
    "end": "2016-03-23T20:00:00",
    "name": "Shouting Quietly - Self promotion for artists",
    "start": "2016-03-23T18:15:00"
  },
  {
    "lon": -0.07679989999996906,
    "lat": 51.5240106,
    "end": "2016-03-23T21:00:00",
    "name": "23rd March 2016 - Meet Up @ ustwo Shoreditch",
    "start": "2016-03-23T19:00:00"
  },
  {
    "lon": -0.08959579999998368,
    "lat": 51.5061009,
    "end": "2016-03-25T21:00:00",
    "name": "Southwark Cathedral Choir - Good Friday Concert 2016",
    "start": "2016-03-25T18:30:00"
  },
  {
    "lon": -0.17535420000001523,
    "lat": 51.5467731,
    "end": "2016-03-30T16:00:00",
    "name": "ADAPT Workshop- Introduction",
    "start": "2016-03-30T10:00:00"
  },
  {
    "lon": -0.14264720000005582,
    "lat": 51.54095299999999,
    "end": "2016-03-30T20:30:00",
    "name": "The Blogger's Lounge - Networking Talk",
    "start": "2016-03-30T18:30:00"
  },
  {
    "lon": -0.07570680000003449,
    "lat": 51.5415101,
    "end": "2016-03-30T21:00:00",
    "name": "London Hardware Collective Meet-up #9",
    "start": "2016-03-30T18:30:00"
  },
  {
    "lon": -0.1216933,
    "lat": 51.5349086,
    "end": "2016-03-23T21:30:00",
    "name": "How to launch a pop-up shop",
    "start": "2016-03-23T18:30:00"
  },
  {
    "lon": -0.12506099999995968,
    "lat": 51.51310299999999,
    "end": "2016-03-24T00:30:00",
    "name": "London Romanian Societies Social",
    "start": "2016-03-23T19:30:00"
  },
  {
    "lon": -0.13503160000004755,
    "lat": 51.5225409,
    "end": "2016-03-24T23:00:00",
    "name": "SUCOOL Accelerator Showcase - London",
    "start": "2016-03-24T19:00:00"
  },
  {
    "lon": -0.1079859999999826,
    "lat": 51.5483961,
    "end": "2016-03-24T21:00:00",
    "name": "Maundy Thursday Meal",
    "start": "2016-03-24T19:00:00"
  },
  {
    "lon": -0.18767300000001796,
    "lat": 51.512114,
    "end": "2016-03-25T23:30:00",
    "name": "End Of Month PayDay Party: Live Music, Free Cocktail & Roulette Spin with Jamie Roche",
    "start": "2016-03-25T20:00:00"
  },
  {
    "lon": -0.08163469999999506,
    "lat": 51.5043391,
    "end": "2016-03-29T18:00:00",
    "name": "The Skills & Insights Programme - PwC",
    "start": "2016-03-29T16:00:00"
  },
  {
    "lon": -0.12742400000001908,
    "lat": 51.528429,
    "end": "2016-03-29T19:00:00",
    "name": "Startup Sessions #6 - Protecting Your Intellectual Property",
    "start": "2016-03-29T17:30:00"
  },
  {
    "lon": -0.107708099999968,
    "lat": 51.5030947,
    "end": "2016-03-29T21:00:00",
    "name": "Black Women's Network: Meet Up",
    "start": "2016-03-29T19:00:00"
  },
  {
    "lon": -0.14166720000002897,
    "lat": 51.5369329,
    "end": "2016-03-30T15:30:00",
    "name": "FWD as ONE",
    "start": "2016-03-30T11:00:00"
  },
  {
    "lon": -0.06997479999995448,
    "lat": 51.5156447,
    "end": "2016-11-16T16:00:00",
    "name": "BA (Hons) Interior Design and Decoration (W262)",
    "start": "2016-03-23T14:00:00"
  },
  {
    "lon": -0.10496349999993981,
    "lat": 51.53897670000001,
    "end": "2016-03-23T22:00:00",
    "name": "Raffle of authentic autographed Arsenal Football Team FA Cup Winners",
    "start": "2016-03-23T19:00:00"
  },
  {
    "lon": -0.12188100000003033,
    "lat": 51.486372,
    "end": "2016-03-23T23:30:00",
    "name": "FLESHHH",
    "start": "2016-03-23T19:30:00"
  },
  {
    "lon": 0.002835000000004584,
    "lat": 51.5430472,
    "end": "2016-03-24T15:00:00",
    "name": "LinkedIn and Managing your digital identity",
    "start": "2016-03-24T13:30:00"
  },
  {
    "lon": 0.027773199999955978,
    "lat": 51.58265149999999,
    "end": "2016-03-25T12:00:00",
    "name": "Little Dukes Easter Egg Hunt",
    "start": "2016-03-25T10:00:00"
  },
  {
    "lon": -0.12200010000003658,
    "lat": 51.53636849999999,
    "end": "2016-03-24T23:00:00",
    "name": "SHEroes of No Fly on the WALL: A night of poetry and music by Black British women",
    "start": "2016-03-24T19:00:00"
  },
  {
    "lon": -0.11631740000007085,
    "lat": 51.5557378,
    "end": "2016-03-23T15:30:00",
    "name": "Ready for Revalidation  - Pm session",
    "start": "2016-03-23T12:00:00"
  },
  {
    "lon": -0.09106099999996786,
    "lat": 51.51611699999999,
    "end": "2016-03-24T12:00:00",
    "name": "(Approved STEM Ambassadors only) People Like Me Training 24th March 2016",
    "start": "2016-03-24T09:30:00"
  },
  {
    "lon": -0.11039270000003398,
    "lat": 51.5324807,
    "end": "2016-03-24T15:30:00",
    "name": "Ready for Revalidation  - Pm session",
    "start": "2016-03-24T12:00:00"
  },
  {
    "lon": -0.09558370000002014,
    "lat": 51.5051243,
    "end": "2016-03-24T17:00:00",
    "name": "Preparing for Revalidation: Workshop For Nurses in Social & Primary Care",
    "start": "2016-03-24T13:30:00"
  },
  {
    "lon": -81.23988109999999,
    "lat": 42.982119,
    "end": "2016-03-25T20:00:00",
    "name": "16.5 and Wrap Up Party",
    "start": "2016-03-25T15:00:00"
  },
  {
    "lon": -0.05399839999995493,
    "lat": 51.5438522,
    "end": "2016-03-25T21:00:00",
    "name": "Children of the Gap: Exhibition Opening Night",
    "start": "2016-03-25T18:00:00"
  },
  {
    "lon": -0.11941330000001926,
    "lat": 51.5111388,
    "end": "2016-03-30T21:00:00",
    "name": "Opto Virtual Reality - Kickstarter launch party",
    "start": "2016-03-30T18:30:00"
  },
  {
    "lon": -0.09464300000001913,
    "lat": 51.51474109999999,
    "end": "2016-03-30T23:00:00",
    "name": "Oxford10 Cocktail Party at Dirty Martini",
    "start": "2016-03-30T19:00:00"
  },
  {
    "lon": 0.002678800000012415,
    "lat": 51.54330059999999,
    "end": "2016-03-23T15:30:00",
    "name": "Skills Academy - Effective Self Management",
    "start": "2016-03-23T13:30:00"
  },
  {
    "lon": -0.09261909999997897,
    "lat": 51.5130115,
    "end": "2016-03-23T20:00:00",
    "name": "CORE BAR VENUE SHOWCASE",
    "start": "2016-03-23T18:00:00"
  },
  {
    "lon": -0.32492400000001,
    "lat": 51.448536,
    "end": "2016-03-23T21:30:00",
    "name": "Twickenham Coding Evening - March",
    "start": "2016-03-23T18:30:00"
  },
  {
    "lon": -0.1280487000000221,
    "lat": 51.5219208,
    "end": "2016-03-23T20:00:00",
    "name": "Book Talk: From Yellow Star to Popstar",
    "start": "2016-03-23T18:30:00"
  },
  {
    "lon": -0.08141100000000279,
    "lat": 51.516719,
    "end": "2016-03-23T21:30:00",
    "name": "A musical journey through Holy Week",
    "start": "2016-03-23T19:30:00"
  },
  {
    "lon": -0.13365840000005846,
    "lat": 51.51321350000001,
    "end": "2016-03-24T20:30:00",
    "name": "InterTech DO: EQUINOX BUILD",
    "start": "2016-03-24T18:30:00"
  },
  {
    "lon": -0.07336380000003828,
    "lat": 51.55122859999999,
    "end": "2016-03-24T20:30:00",
    "name": "Medina Book 1: Free Weekly Class",
    "start": "2016-03-24T18:30:00"
  },
  {
    "lon": -0.10590049999996154,
    "lat": 51.6147418,
    "end": "2016-03-25T23:30:00",
    "name": "DMMUK - March 2016 Holi Rang Barse Friday Club",
    "start": "2016-03-25T19:30:00"
  },
  {
    "lon": -0.261821800000007,
    "lat": 51.4819472,
    "end": "2016-04-06T15:00:00",
    "name": "Easter Soccer Schools 2016 - Chiswick",
    "start": "2016-03-29T10:00:00"
  },
  {
    "lon": -0.11648360000003777,
    "lat": 51.5119334,
    "end": "2016-03-29T17:30:00",
    "name": "Brexit and the CJEU: Judicial protection for the UK in the Court of Justice of the European Union",
    "start": "2016-03-29T16:00:00"
  },
  {
    "lon": -81.22568000000001,
    "lat": 42.961264,
    "end": "2016-03-30T20:30:00",
    "name": "Estate Planning, Transitioning into Adulthood and RDSPs",
    "start": "2016-03-30T18:30:00"
  },
  {
    "lon": -0.10762460000000829,
    "lat": 51.5318689,
    "end": "2016-03-23T18:00:00",
    "name": "The Lab #4",
    "start": "2016-03-23T13:00:00"
  },
  {
    "lon": -0.12974719999999706,
    "lat": 51.52415629999999,
    "end": "2016-03-23T18:00:00",
    "name": "UCL Institute of the Americas Open Day for prospective Master's degree students",
    "start": "2016-03-23T14:30:00"
  },
  {
    "lon": -0.07162629999993442,
    "lat": 51.5194278,
    "end": "2016-03-24T23:00:00",
    "name": "JAPANESE COCKTAILS AFTER WORK - NETWORKING AT BRICK LANE",
    "start": "2016-03-24T19:00:00"
  },
  {
    "lon": -0.1457350000000588,
    "lat": 51.515988,
    "end": "2016-03-29T19:00:00",
    "name": "Who were “the right sort of women”? Exhibition launch",
    "start": "2016-03-29T17:30:00"
  },
  {
    "lon": -0.13459199999999782,
    "lat": 51.511923,
    "end": "2016-03-29T23:30:00",
    "name": "PsychFi | Virtual Futures Salon",
    "start": "2016-03-29T18:30:00"
  },
  {
    "lon": -0.2113802000000078,
    "lat": 51.5002575,
    "end": "2016-03-30T21:30:00",
    "name": "Lecture: Cinema and Politics by Kakhi Kenkadze",
    "start": "2016-03-30T18:30:00"
  },
  {
    "lon": 0.03654679999999644,
    "lat": 51.5300024,
    "end": "2016-03-24T16:30:00",
    "name": "NM Tutor Training",
    "start": "2016-03-24T09:30:00"
  },
  {
    "lon": 0.062125799999989795,
    "lat": 51.507657,
    "end": "2016-03-24T12:00:00",
    "name": "Makers Make Money (Legally!)",
    "start": "2016-03-24T10:00:00"
  },
  {
    "lon": -0.12954000000001997,
    "lat": 51.51184,
    "end": "2016-03-24T21:00:00",
    "name": "YTP-LON March Event",
    "start": "2016-03-24T18:00:00"
  },
  {
    "lon": -0.09785690000001068,
    "lat": 51.5144853,
    "end": "2016-03-29T22:00:00",
    "name": "2nd Annual JLL Pub Quiz",
    "start": "2016-03-29T19:00:00"
  },
  {
    "lon": -0.14320509999993192,
    "lat": 51.5168133,
    "end": "2016-03-23T18:30:00",
    "name": "Comparative and International Criminal Justice",
    "start": "2016-03-23T13:30:00"
  },
  {
    "lon": 0.002662099999952261,
    "lat": 51.5433308,
    "end": "2016-03-23T20:30:00",
    "name": "Step by Step (4), an interdisciplinary seminar with a focus on walking",
    "start": "2016-03-23T18:00:00"
  },
  {
    "lon": 0.002678800000012415,
    "lat": 51.54330059999999,
    "end": "2016-03-24T12:30:00",
    "name": "Skills Academy - Professional Branding",
    "start": "2016-03-24T10:30:00"
  },
  {
    "lon": -0.07862620000003062,
    "lat": 51.5273581,
    "end": "2016-03-26T18:00:00",
    "name": "THE CLOSET SALE LAUNCH EVENT",
    "start": "2016-03-26T11:00:00"
  },
  {
    "lon": -0.133782999999994,
    "lat": 51.5140063,
    "end": "2016-03-29T20:00:00",
    "name": "Non-Executive Director Social Networking Chocolate and Wine Evening - NEDonBoard",
    "start": "2016-03-29T18:30:00"
  },
  {
    "lon": -0.0725813,
    "lat": 51.5185458,
    "end": "2016-03-30T17:30:00",
    "name": "Research Seminar Series - Professor Bobby Banerjee",
    "start": "2016-03-30T16:00:00"
  },
  {
    "lon": -0.08536549999996623,
    "lat": 51.525951,
    "end": "2016-03-23T19:00:00",
    "name": "Professional LinkedIn Photo Day - Get a professional picture and help raise money for good cause.",
    "start": "2016-03-23T10:00:00"
  },
  {
    "lon": -0.08147859999996854,
    "lat": 51.50216959999999,
    "end": "2016-03-23T20:30:00",
    "name": "AGM Activism Training #3",
    "start": "2016-03-23T18:00:00"
  },
  {
    "lon": 0,
    "lat": 0,
    "end": "2016-03-23T20:00:00",
    "name": "India and the Contemporary World",
    "start": "2016-03-23T18:00:00"
  },
  {
    "lon": 0.0808371000000534,
    "lat": 51.5606239,
    "end": "2016-03-24T23:30:00",
    "name": "FUN TIME THURSDAY",
    "start": "2016-03-24T18:30:00"
  },
  {
    "lon": -0.12432699999999386,
    "lat": 51.518507,
    "end": "2016-03-24T21:00:00",
    "name": "Magma 64 Launch on the theme of 'Risk'",
    "start": "2016-03-24T19:00:00"
  },
  {
    "lon": -0.0669474999999693,
    "lat": 51.46772,
    "end": "2016-03-25T23:00:00",
    "name": "T A P E Presents The Wild Party",
    "start": "2016-03-25T17:00:00"
  },
  {
    "lon": -0.17813830000000053,
    "lat": 51.5007339,
    "end": "2016-03-25T20:00:00",
    "name": "الصالون الثقافي",
    "start": "2016-03-25T17:00:00"
  },
  {
    "lon": -0.130704000000037,
    "lat": 51.5377798,
    "end": "2016-03-30T20:00:00",
    "name": "Hardware Launchpad London",
    "start": "2016-03-29T09:30:00"
  },
  {
    "lon": -0.08551539999996294,
    "lat": 51.5225996,
    "end": "2016-03-29T21:30:00",
    "name": "Connecting with 5.6 Billion People w/Monty Munford (The Economist, Wired), Hilal Koc (LinkedIn EMEA), Andrew Fassinge (AppsAfrica)",
    "start": "2016-03-29T18:30:00"
  },
  {
    "lon": -0.1166756999999734,
    "lat": 51.5401427,
    "end": "2016-03-29T22:00:00",
    "name": "VideoBrains March: Uncharted",
    "start": "2016-03-29T19:00:00"
  },
  {
    "lon": -0.06997479999995448,
    "lat": 51.5156447,
    "end": "2016-11-16T12:00:00",
    "name": "BA (Hons) Furniture (W261)",
    "start": "2016-03-23T10:00:00"
  },
  {
    "lon": -0.22107260000007045,
    "lat": 51.4925299,
    "end": "2016-03-27T18:00:00",
    "name": "ONECOIN NATIONAL EVENT",
    "start": "2016-03-27T11:00:00"
  },
  {
    "lon": -0.12074489999997695,
    "lat": 51.53070899999999,
    "end": "2016-03-28T23:30:00",
    "name": "Cocoyea - The Original Easter Monday Feté",
    "start": "2016-03-28T18:00:00"
  },
  {
    "lon": -0.15973970000004556,
    "lat": 51.5188877,
    "end": "2016-03-30T13:00:00",
    "name": "Pitch the Embassy",
    "start": "2016-03-30T09:30:00"
  },
  {
    "lon": -0.11491890000002059,
    "lat": 51.5183584,
    "end": "2016-03-24T20:30:00",
    "name": "An Evening of Fantasy at Blackwell's High Holborn",
    "start": "2016-03-24T18:30:00"
  },
  {
    "lon": -0.12009999999997945,
    "lat": 51.516198,
    "end": "2016-03-24T21:00:00",
    "name": "03 - WELL BEING EVENING 'GET CONFIDENT'",
    "start": "2016-03-24T19:00:00"
  },
  {
    "lon": -0.1372440000000097,
    "lat": 51.508572,
    "end": "2016-03-26T16:30:00",
    "name": "Easter Chocolate House Tour 2016",
    "start": "2016-03-26T14:30:00"
  },
  {
    "lon": -0.12738230000002204,
    "lat": 51.51277019999999,
    "end": "2016-03-24T16:30:00",
    "name": "Skillshare // Equity Freelance Dance Network",
    "start": "2016-03-24T14:00:00"
  },
  {
    "lon": -0.1345550999999432,
    "lat": 51.6096341,
    "end": "2016-03-26T16:00:00",
    "name": "AKF Volunteer Open Day",
    "start": "2016-03-26T10:00:00"
  },
  {
    "lon": -0.19995879999999033,
    "lat": 51.473412,
    "end": "2016-03-27T17:00:00",
    "name": "2nd Knowledge Day",
    "start": "2016-03-27T09:30:00"
  },
  {
    "lon": -0.14514269999995122,
    "lat": 51.5211924,
    "end": "2016-03-29T16:00:00",
    "name": "Design Day: One for all and all for one!",
    "start": "2016-03-29T11:00:00"
  },
  {
    "lon": -0.11189739999997528,
    "lat": 51.4632173,
    "end": "2016-03-30T21:00:00",
    "name": "Brixton Works | Co-design workshop",
    "start": "2016-03-30T18:00:00"
  },
  {
    "lon": -0.14543379999997796,
    "lat": 51.4548004,
    "end": "2016-03-30T20:00:00",
    "name": "2016 Free O2 Touch Taster / Training Sessions (Clapham Common)",
    "start": "2016-03-30T18:30:00"
  },
  {
    "lon": -0.13394510000000537,
    "lat": 51.525851,
    "end": "2016-03-23T12:30:00",
    "name": "VISIT | Wellcome Collection | 23 Mar 2016",
    "start": "2016-03-23T11:30:00"
  },
  {
    "lon": 0.000464700000065931,
    "lat": 51.5398596,
    "end": "2016-03-23T20:00:00",
    "name": "Entrepreneurs and Start-up Open Day",
    "start": "2016-03-23T18:00:00"
  },
  {
    "lon": -0.13580560000002606,
    "lat": 51.5152954,
    "end": "2016-03-23T21:30:00",
    "name": "Speakers Club: How to Strategically Start and Accelerate your Speaking Career",
    "start": "2016-03-23T18:30:00"
  },
  {
    "lon": -0.07601429999999709,
    "lat": 51.5403731,
    "end": "2016-03-23T23:00:00",
    "name": "The Inkling Book Club | Adam Foulds",
    "start": "2016-03-23T19:00:00"
  },
  {
    "lon": -0.09098519999997734,
    "lat": 51.5123443,
    "end": "2016-03-25T12:30:00",
    "name": "The Butterworth Charity, Widows’ Sixpence and Other City Ceremonies - guided tour",
    "start": "2016-03-25T10:30:00"
  },
  {
    "lon": -0.1251999999999498,
    "lat": 51.50941,
    "end": "2016-03-25T23:30:00",
    "name": "@FreshCutGardenHose Exhibition Closing Night: Meet the Artist",
    "start": "2016-03-25T19:00:00"
  },
  {
    "lon": -0.08639530000000001,
    "lat": 51.5198906,
    "end": "2016-03-30T13:45:00",
    "name": "30 March 2016 – Bloomberg Workshop – Understanding Options Strategies",
    "start": "2016-03-30T12:15:00"
  },
  {
    "lon": -0.22000900000000456,
    "lat": 51.58624589999999,
    "end": "2016-03-30T22:00:00",
    "name": "Healthy cooking from sunny California to North London Learn, Try & Taste 30.3",
    "start": "2016-03-30T20:00:00"
  },
  {
    "lon": -0.11609969999994973,
    "lat": 51.51847050000001,
    "end": "2016-03-23T17:00:00",
    "name": "9 - Monitoring and measuring road fleet performance - London",
    "start": "2016-03-23T13:15:00"
  },
  {
    "lon": -0.1345413000000235,
    "lat": 51.5150456,
    "end": "2016-03-23T21:00:00",
    "name": "Alternative Funding Event/Workshop",
    "start": "2016-03-23T16:30:00"
  },
  {
    "lon": -0.15663770000003296,
    "lat": 51.46491939999999,
    "end": "2016-03-23T21:30:00",
    "name": "European Beer Tasting Masterclass",
    "start": "2016-03-23T18:30:00"
  },
  {
    "lon": -0.09156949999999142,
    "lat": 51.5034702,
    "end": "2016-03-23T22:30:00",
    "name": "LOVE JONES: Black/Afro-British Singles Mixer - Wednesday 23rd March",
    "start": "2016-03-23T19:00:00"
  },
  {
    "lon": -0.05870030000005499,
    "lat": 51.5633188,
    "end": "2016-03-26T13:30:00",
    "name": "How To Attract High End Clients To Your Consulting or Coaching Business",
    "start": "2016-03-26T10:00:00"
  },
  {
    "lon": -0.0682509000000664,
    "lat": 51.59898,
    "end": "2016-03-26T17:00:00",
    "name": "Our Community, Our Story: The African Journey to Britain  (The Pre-Launch)",
    "start": "2016-03-26T14:00:00"
  },
  {
    "lon": -0.17293879999999717,
    "lat": 51.493835,
    "end": "2016-03-29T15:30:00",
    "name": "In Search of… Albertopolis",
    "start": "2016-03-29T14:00:00"
  },
  {
    "lon": -81.21878520000001,
    "lat": 42.9967516,
    "end": "2016-04-06T20:30:00",
    "name": "Setting Limits with Love",
    "start": "2016-03-30T18:30:00"
  },
  {
    "lon": -0.0871415,
    "lat": 51.5126091,
    "end": "2016-03-23T14:00:00",
    "name": "The Seven Last Words from the Cross, by Joseph Haydn",
    "start": "2016-03-23T13:00:00"
  },
  {
    "lon": -0.11999609999998029,
    "lat": 51.5159072,
    "end": "2016-03-23T16:00:00",
    "name": "How to Get a Job in Politics and the City of London - Employment Seminar",
    "start": "2016-03-23T14:00:00"
  },
  {
    "lon": -0.12767589999998563,
    "lat": 51.5299717,
    "end": "2016-03-24T13:00:00",
    "name": "How to generate PR for your business on a limited budget",
    "start": "2016-03-24T10:00:00"
  },
  {
    "lon": -0.07491819999995641,
    "lat": 51.550752,
    "end": "2016-03-28T23:30:00",
    "name": "DSArts presents 'EPHEMERAL' by Leanne Claxton",
    "start": "2016-03-24T18:00:00"
  },
  {
    "lon": -0.07500500000003285,
    "lat": 51.546915,
    "end": "2016-03-24T20:30:00",
    "name": "Mayor's Civic Crowdfunding Programme Workshop",
    "start": "2016-03-24T18:30:00"
  },
  {
    "lon": -0.22334780000005594,
    "lat": 51.4825707,
    "end": "2016-03-24T21:30:00",
    "name": "Spring PlayDate 2016",
    "start": "2016-03-24T19:00:00"
  },
  {
    "lon": -0.09743839999998727,
    "lat": 51.35707429999999,
    "end": "2016-03-26T16:00:00",
    "name": "LET THE PROPHETS SPEAK",
    "start": "2016-03-26T12:00:00"
  },
  {
    "lon": -81.2510767,
    "lat": 42.9882694,
    "end": "2016-03-29T21:30:00",
    "name": "'MMF Managers' Huddle presented by London Music Office",
    "start": "2016-03-29T19:00:00"
  },
  {
    "lon": -0.12775829999998223,
    "lat": 51.5073509,
    "end": "2016-03-30T12:30:00",
    "name": "New London Walking Tour - King's Cross St Pancras",
    "start": "2016-03-30T10:30:00"
  },
  {
    "lon": -0.09974339999996573,
    "lat": 51.5389414,
    "end": "2016-03-30T13:30:00",
    "name": "Speak Street Language cafe Spring Mixer",
    "start": "2016-03-30T11:30:00"
  },
  {
    "lon": 0.008377600000017082,
    "lat": 51.5446003,
    "end": "2016-03-30T14:30:00",
    "name": "Campus Tour - Stratford",
    "start": "2016-03-30T13:00:00"
  },
  {
    "lon": -0.00872800000001916,
    "lat": 51.583957,
    "end": "2016-03-24T23:30:00",
    "name": "\"Original Gravity - The Film\" Screening",
    "start": "2016-03-24T20:00:00"
  },
  {
    "lon": -0.08716770000000906,
    "lat": 51.5862981,
    "end": "2016-03-26T18:30:00",
    "name": "Keeping Wealth in the Family - Trusts & Tax Efficient Inheritance Planning",
    "start": "2016-03-26T16:00:00"
  },
  {
    "lon": 0,
    "lat": 0,
    "end": "2016-03-28T17:00:00",
    "name": "LEAP 2016 - Gaining Momentum",
    "start": "2016-03-28T12:00:00"
  },
  {
    "lon": -0.15519719999997506,
    "lat": 51.4655666,
    "end": "2016-03-29T20:00:00",
    "name": "Mayor's Civic Crowdfunding Programme Workshop",
    "start": "2016-03-29T18:00:00"
  },
  {
    "lon": -0.14514269999995122,
    "lat": 51.5211924,
    "end": "2016-03-30T16:00:00",
    "name": "Skill Up: Space and Experience",
    "start": "2016-03-30T11:00:00"
  },
  {
    "lon": -0.1304698000000144,
    "lat": 51.5174235,
    "end": "2016-03-30T21:30:00",
    "name": "Free Casino Learn to play and Networking- Grosvenor St Giles Casino",
    "start": "2016-03-30T18:30:00"
  },
  {
    "lon": -0.00391739999997753,
    "lat": 51.48449309999999,
    "end": "2016-03-30T20:30:00",
    "name": "What drives us to live a fulfilled life? A Hindu Perspective",
    "start": "2016-03-30T18:30:00"
  },
  {
    "lon": -0.1068559999999934,
    "lat": 51.531259,
    "end": "2016-03-30T20:30:00",
    "name": "Expedia Tech Know How - \"Beyond WCAG 2.0 - Effective Inclusive Design Through Testing\"",
    "start": "2016-03-30T18:30:00"
  },
  {
    "lon": -0.12200010000003658,
    "lat": 51.53636849999999,
    "end": "2016-03-23T22:00:00",
    "name": "YouTube Music Meetup",
    "start": "2016-03-23T18:30:00"
  },
  {
    "lon": -0.08104609999998047,
    "lat": 51.6503243,
    "end": "2016-03-23T21:30:00",
    "name": "MyAdvertisingPays (MAP) North London UK Presentation Event",
    "start": "2016-03-23T19:00:00"
  },
  {
    "lon": -0.42182449999995697,
    "lat": 51.48090630000001,
    "end": "2016-03-24T16:30:00",
    "name": "National Further Education Conference",
    "start": "2016-03-24T09:00:00"
  },
  {
    "lon": -0.13504390000002786,
    "lat": 51.50950479999999,
    "end": "2016-03-25T03:00:00",
    "name": "Easter Soul Night",
    "start": "2016-03-24T21:00:00"
  },
  {
    "lon": -0.09846300000003794,
    "lat": 51.48960599999999,
    "end": "2016-03-27T17:00:00",
    "name": "NDT workshop with Sarah Reynolds",
    "start": "2016-03-27T14:00:00"
  },
  {
    "lon": -0.09956290000002355,
    "lat": 51.5027866,
    "end": "2016-03-29T16:00:00",
    "name": "International Reporting Workshop",
    "start": "2016-03-29T10:00:00"
  },
  {
    "lon": -0.07931199999995897,
    "lat": 51.526477,
    "end": "2016-03-31T17:00:00",
    "name": "Art Activism Easter School",
    "start": "2016-03-29T10:00:00"
  },
  {
    "lon": -0.13456750000000284,
    "lat": 51.49113329999999,
    "end": "2016-03-29T20:30:00",
    "name": "A Six-Week History of London Course with Dr Matthew Green",
    "start": "2016-03-29T18:30:00"
  },
  {
    "lon": -0.1292590000000473,
    "lat": 51.52235,
    "end": "2016-03-23T20:00:00",
    "name": "Public Lecture: Curfews and Security Operations in Turkey - Protection of Civilians during Internal Conflict",
    "start": "2016-03-23T18:30:00"
  },
  {
    "lon": -0.14681070000006002,
    "lat": 51.5078081,
    "end": "2016-03-23T20:30:00",
    "name": "A Jazz Jukebox, with James Pearson",
    "start": "2016-03-23T19:00:00"
  },
  {
    "lon": -0.15497349999998278,
    "lat": 51.52235229999999,
    "end": "2016-03-24T21:00:00",
    "name": "Q&A night - What will your property profession be?",
    "start": "2016-03-24T18:00:00"
  },
  {
    "lon": -0.08714599999996153,
    "lat": 51.527668,
    "end": "2016-03-24T20:00:00",
    "name": "Speed Networking",
    "start": "2016-03-24T18:30:00"
  },
  {
    "lon": -0.1322212000000036,
    "lat": 51.51203,
    "end": "2016-03-24T22:00:00",
    "name": "Phoenix Session III",
    "start": "2016-03-24T19:00:00"
  },
  {
    "lon": -0.04059979999999541,
    "lat": 51.4711504,
    "end": "2016-03-25T23:00:00",
    "name": "Nowruz",
    "start": "2016-03-25T17:00:00"
  },
  {
    "lon": -0.12775829999998223,
    "lat": 51.5073509,
    "end": "2016-03-25T22:00:00",
    "name": "FREE 2 HOUR MUSIC DEVELOPMENT CONSULTATION FOR ARTISTS, BANDS, MUSICIANS, PRODUCERS, RAPPERS",
    "start": "2016-03-25T19:00:00"
  },
  {
    "lon": -0.15534819999993488,
    "lat": 51.5225746,
    "end": "2016-03-26T14:00:00",
    "name": "Calling on all VIPs for a time of worship: Theme - Knowing your Father's Heart",
    "start": "2016-03-26T09:30:00"
  },
  {
    "lon": -0.11941330000001926,
    "lat": 51.5111388,
    "end": "2016-03-27T15:00:00",
    "name": "Season Finale: Coding Challenge",
    "start": "2016-03-27T10:00:00"
  },
  {
    "lon": -81.23036939999997,
    "lat": 42.953606,
    "end": "2016-03-29T20:30:00",
    "name": "Canada Launch Tour- London",
    "start": "2016-03-29T18:30:00"
  },
  {
    "lon": -0.1349639999999681,
    "lat": 51.498812,
    "end": "2016-03-30T16:00:00",
    "name": "Knowing Algorithms: Ethics and Epistemology of Machine Learning",
    "start": "2016-03-30T10:00:00"
  },
  {
    "lon": -0.11043319999998857,
    "lat": 51.5523348,
    "end": "2016-03-30T14:00:00",
    "name": "Holloway campus tour",
    "start": "2016-03-30T13:00:00"
  },
  {
    "lon": -0.22475029999998242,
    "lat": 51.4914768,
    "end": "2016-03-23T13:00:00",
    "name": "Building the right Support Hammersmith",
    "start": "2016-03-23T11:00:00"
  },
  {
    "lon": -0.10809970000002522,
    "lat": 51.52337780000001,
    "end": "2016-03-23T21:30:00",
    "name": "The Business of Being Funny - Talent Schemes in Conversation: Gary Reich [FREE]*",
    "start": "2016-03-23T18:30:00"
  },
  {
    "lon": -0.08007099999997536,
    "lat": 51.527922,
    "end": "2016-03-23T21:30:00",
    "name": "Reflections in Sound - Alignment",
    "start": "2016-03-23T19:30:00"
  },
  {
    "lon": -0.07501990000002934,
    "lat": 51.51443339999999,
    "end": "2016-03-25T00:00:00",
    "name": "AcadaMay at Le Boudoir 24th March",
    "start": "2016-03-24T20:00:00"
  },
  {
    "lon": 0.0022,
    "lat": 51.543,
    "end": "2016-03-25T23:00:00",
    "name": "888 FILM CLUB - STRAIGHT OUTTA COMPTON (SUBTITLED)",
    "start": "2016-03-24T20:30:00"
  },
  {
    "lon": -0.11896649999994224,
    "lat": 51.5181568,
    "end": "2016-03-28T23:00:00",
    "name": "WOMEN IN BUSINESS NETWORKING EVENT",
    "start": "2016-03-28T18:00:00"
  },
  {
    "lon": -0.11943799999994553,
    "lat": 51.52560219999999,
    "end": "2016-04-01T17:00:00",
    "name": "Hands-on Cardiac Morphology Course - March Edition - UCL Ref: 501826",
    "start": "2016-03-30T09:00:00"
  },
  {
    "lon": -0.09797709999998006,
    "lat": 51.50577730000001,
    "end": "2016-03-30T21:00:00",
    "name": "How to start a business while still working? Is it possible? In support of London2Ghana",
    "start": "2016-03-30T19:00:00"
  },
  {
    "lon": -0.12269679999997152,
    "lat": 51.52138189999999,
    "end": "2016-03-23T17:00:00",
    "name": "Crowdfunding for Fashion Seminar",
    "start": "2016-03-23T14:00:00"
  },
  {
    "lon": -0.185216999999966,
    "lat": 51.49423600000001,
    "end": "2016-03-23T21:00:00",
    "name": "How To Build A Brand | Become The Go To Expert In Your Industry",
    "start": "2016-03-23T18:00:00"
  },
  {
    "lon": -0.1004149000000325,
    "lat": 51.5490654,
    "end": "2016-03-23T20:30:00",
    "name": "Full Moon Gong Bath with Earth & Pluto Gongs in Highbury & Islington",
    "start": "2016-03-23T19:30:00"
  },
  {
    "lon": -81.26212829999997,
    "lat": 43.0083796,
    "end": "2016-03-24T20:00:00",
    "name": "Women's Empowerment: Connections Dinner",
    "start": "2016-03-24T17:45:00"
  },
  {
    "lon": -0.14811889999998584,
    "lat": 51.50433289999999,
    "end": "2016-03-24T20:30:00",
    "name": "What if Britain Left the EU? Part 1 of 2",
    "start": "2016-03-24T18:30:00"
  },
  {
    "lon": -0.1693688000000293,
    "lat": 51.4629923,
    "end": "2016-03-25T03:00:00",
    "name": "The Grand Screening Presents: Moulin Rouge",
    "start": "2016-03-24T19:30:00"
  },
  {
    "lon": -0.19140809999998964,
    "lat": 51.50104,
    "end": "2016-03-26T03:00:00",
    "name": "Night out at Roof Gardens with COMPLIMENTARY entry and welcome drink",
    "start": "2016-03-25T19:00:00"
  },
  {
    "lon": -0.1908329999999978,
    "lat": 51.498614,
    "end": "2016-03-26T12:30:00",
    "name": "4 Keys to Financial Freedom (London)",
    "start": "2016-03-26T08:30:00"
  },
  {
    "lon": -0.1954000000000633,
    "lat": 51.48008,
    "end": "2016-03-26T22:30:00",
    "name": "Gfinity FIFA Play Like a Legend 2 Season 2",
    "start": "2016-03-26T10:30:00"
  },
  {
    "lon": -0.19127709999997933,
    "lat": 51.5012112,
    "end": "2016-03-27T03:00:00",
    "name": "Easter Rooftop Party @ The Roof Gardens (Kensington)",
    "start": "2016-03-26T20:00:00"
  },
  {
    "lon": -0.05667500000004111,
    "lat": 51.529518,
    "end": "2016-03-27T02:00:00",
    "name": "C O V E N: Spellbound",
    "start": "2016-03-26T20:00:00"
  },
  {
    "lon": -81.2257439,
    "lat": 42.961236,
    "end": "2016-03-29T15:30:00",
    "name": "Why Do They Do That? Understanding Behaviour (Part 2 of 2) London (1-3:30 pm)",
    "start": "2016-03-29T13:00:00"
  },
  {
    "lon": -81.20373419999999,
    "lat": 42.9969008,
    "end": "2016-03-29T20:30:00",
    "name": "LONDON - MARCH BUILDING BLOCKS CLUB",
    "start": "2016-03-29T19:00:00"
  },
  {
    "lon": -0.12230279999994309,
    "lat": 51.5171333,
    "end": "2016-03-29T21:30:00",
    "name": "In Bed With London On The Inside",
    "start": "2016-03-29T19:00:00"
  },
  {
    "lon": -0.00836639999999988,
    "lat": 51.48006239999999,
    "end": "2016-03-31T17:00:00",
    "name": "Restoration of Arid Lands and Combat of Desertification: From Science to Practice",
    "start": "2016-03-30T09:00:00"
  },
  {
    "lon": -0.11266899999998259,
    "lat": 51.499186,
    "end": "2016-03-30T22:00:00",
    "name": "Blackshaw's New Writing Night",
    "start": "2016-03-30T19:30:00"
  },
  {
    "lon": -0.09634389999996529,
    "lat": 51.5718998,
    "end": "2016-03-30T22:00:00",
    "name": "BearFunny119 - Henning Wehn, Julian Deane, Morgan Berry +MC Sarah Callaghan",
    "start": "2016-03-30T20:30:00"
  },
  {
    "lon": -0.10759729999995216,
    "lat": 51.52539549999999,
    "end": "2016-03-23T15:30:00",
    "name": "Women and Industry",
    "start": "2016-03-23T14:00:00"
  },
  {
    "lon": -0.11072200000000976,
    "lat": 51.551606,
    "end": "2016-03-23T16:00:00",
    "name": "UCAS application workshop",
    "start": "2016-03-23T14:00:00"
  },
  {
    "lon": -0.13768049999998766,
    "lat": 51.5134376,
    "end": "2016-03-23T21:30:00",
    "name": "Central London Evening Meet",
    "start": "2016-03-23T18:30:00"
  },
  {
    "lon": -0.1877415999999812,
    "lat": 51.51221140000001,
    "end": "2016-03-23T22:30:00",
    "name": "Golden Horseshoe Presents Casino Comedy Club With Paul McCaffrey & Stephen Carlin. Hosted by James Redmond",
    "start": "2016-03-23T19:30:00"
  },
  {
    "lon": -0.13737400000002253,
    "lat": 51.566574,
    "end": "2016-03-24T17:00:00",
    "name": "Masterclass in behaviour change",
    "start": "2016-03-24T09:00:00"
  },
  {
    "lon": -0.12591999999995096,
    "lat": 51.507053,
    "end": "2016-03-24T20:30:00",
    "name": "FREE Internet Marketing Business Workshop",
    "start": "2016-03-24T18:30:00"
  },
  {
    "lon": -0.13139490000003207,
    "lat": 51.5162432,
    "end": "2016-03-24T22:00:00",
    "name": "RAW Social Gathering @ Vantra",
    "start": "2016-03-24T19:00:00"
  },
  {
    "lon": -0.06583390000002964,
    "lat": 51.517486,
    "end": "2016-03-26T19:00:00",
    "name": "The Illusion of Limits",
    "start": "2016-03-26T15:00:00"
  },
  {
    "lon": -0.13857069999994565,
    "lat": 51.50855079999999,
    "end": "2016-03-29T21:00:00",
    "name": "SPE Dinner Programme: March 29th, 2016",
    "start": "2016-03-29T17:00:00"
  },
  {
    "lon": -0.09146390000000792,
    "lat": 51.51405250000001,
    "end": "2016-03-29T21:30:00",
    "name": "Showstopper Genre Workshop II",
    "start": "2016-03-29T18:30:00"
  },
  {
    "lon": -0.08712089999994532,
    "lat": 51.5132006,
    "end": "2016-03-29T22:00:00",
    "name": "Over 35's Speed-Dating Includes Cocktail & Canapés",
    "start": "2016-03-29T19:00:00"
  },
  {
    "lon": -0.13377220000006673,
    "lat": 51.513084,
    "end": "2016-03-29T22:00:00",
    "name": "March 2016 London Clojure Dojo at ThoughtWorks (Soho)",
    "start": "2016-03-29T19:00:00"
  },
  {
    "lon": -81.23527509999997,
    "lat": 42.9895063,
    "end": "2016-03-30T13:00:00",
    "name": "OIRPD - Office of the Independent Police Review",
    "start": "2016-03-30T12:00:00"
  },
  {
    "lon": -0.01045010000007096,
    "lat": 51.562633,
    "end": "2016-03-30T20:30:00",
    "name": "THE INSIDERS",
    "start": "2016-03-30T18:00:00"
  },
  {
    "lon": -0.17470079999998234,
    "lat": 51.5000221,
    "end": "2016-03-23T14:00:00",
    "name": "中科院青岛生物能源与过程所人才招聘会",
    "start": "2016-03-23T12:30:00"
  },
  {
    "lon": -0.17982180000001335,
    "lat": 51.4377113,
    "end": "2016-03-23T18:30:00",
    "name": "Arts Award Local Area Network Meeting - Wandsworth",
    "start": "2016-03-23T16:00:00"
  },
  {
    "lon": -0.07201889999998912,
    "lat": 51.5209249,
    "end": "2016-03-24T00:00:00",
    "name": "MusicArts Launch Event",
    "start": "2016-03-23T18:00:00"
  },
  {
    "lon": -0.1666095000000496,
    "lat": 51.4637876,
    "end": "2016-03-24T08:00:00",
    "name": "Whole Planet Foundation Yoga @ Clapham Junction",
    "start": "2016-03-24T07:00:00"
  },
  {
    "lon": -0.10170110000001387,
    "lat": 51.4977017,
    "end": "2016-03-24T13:00:00",
    "name": "Ignite your ideas: Sustainability and Creativity",
    "start": "2016-03-24T09:45:00"
  },
  {
    "lon": -0.08379460000003291,
    "lat": 51.527775,
    "end": "2016-03-24T13:00:00",
    "name": "Tackling Youth Violence Network",
    "start": "2016-03-24T10:00:00"
  },
  {
    "lon": -0.05754630000001271,
    "lat": 51.5147854,
    "end": "2016-03-24T19:00:00",
    "name": "Free GCSE Revision Workshop (Boys)",
    "start": "2016-03-24T17:00:00"
  },
  {
    "lon": -0.08386319999999614,
    "lat": 51.50946,
    "end": "2016-03-24T19:30:00",
    "name": "London Mayoral Elections -the insiders view on the mayoral race",
    "start": "2016-03-24T17:30:00"
  },
  {
    "lon": -0.1424775000000409,
    "lat": 51.5067603,
    "end": "2016-03-26T12:00:00",
    "name": "Does the Queen wear her crown in bed?",
    "start": "2016-03-26T10:10:00"
  },
  {
    "lon": -0.19988899999998466,
    "lat": 51.514129,
    "end": "2016-03-26T17:30:00",
    "name": "Open day @ BodyWorksWest",
    "start": "2016-03-26T11:00:00"
  },
  {
    "lon": -0.2247151000000258,
    "lat": 51.50395779999999,
    "end": "2016-03-27T13:30:00",
    "name": "Sacred Idleness - Sacred Sundays Guided Meditation",
    "start": "2016-03-27T12:30:00"
  },
  {
    "lon": -0.18947819999993953,
    "lat": 51.4861684,
    "end": "2016-03-28T01:00:00",
    "name": "Funkatarium",
    "start": "2016-03-27T19:00:00"
  },
  {
    "lon": -0.175200000000018,
    "lat": 51.474067,
    "end": "2016-03-30T17:00:00",
    "name": "Introduction to Grade 8 (Female) syllabi CPD Course",
    "start": "2016-03-29T10:00:00"
  },
  {
    "lon": -0.15674699999999575,
    "lat": 51.5153968,
    "end": "2016-03-29T19:30:00",
    "name": "Netball Club - 29 March 2016",
    "start": "2016-03-29T18:15:00"
  },
  {
    "lon": -0.1666095000000496,
    "lat": 51.4637876,
    "end": "2016-03-29T20:00:00",
    "name": "FREE 10K Run With Sweaty Betty @ Clapham Junction",
    "start": "2016-03-29T19:00:00"
  },
  {
    "lon": -0.08043470000006891,
    "lat": 51.5144053,
    "end": "2016-03-30T11:00:00",
    "name": "Auto Enrolment at the Gherkin",
    "start": "2016-03-30T08:00:00"
  },
  {
    "lon": -0.12188100000003033,
    "lat": 51.486372,
    "end": "2016-03-30T22:00:00",
    "name": "Drag Graduation: Spring 2016",
    "start": "2016-03-30T19:00:00"
  },
  {
    "lon": -0.09156269999994038,
    "lat": 51.44932490000001,
    "end": "2016-03-30T21:00:00",
    "name": "WaG Track Party",
    "start": "2016-03-30T19:00:00"
  },
  {
    "lon": -0.09393929999998818,
    "lat": 51.480869,
    "end": "2016-03-24T16:30:00",
    "name": "Finance Made Easy",
    "start": "2016-03-24T10:00:00"
  },
  {
    "lon": -0.11198409999997239,
    "lat": 51.4706775,
    "end": "2016-03-26T06:00:00",
    "name": "We Are Balearic Present The Long Good Friday",
    "start": "2016-03-25T21:00:00"
  },
  {
    "lon": -0.130704000000037,
    "lat": 51.5377798,
    "end": "2016-03-30T20:00:00",
    "name": "Hardware Launchpad London",
    "start": "2016-03-29T09:30:00"
  },
  {
    "lon": -0.1359904999999344,
    "lat": 51.522709,
    "end": "2016-03-29T17:00:00",
    "name": "TPMC Chair/ TPD: Chairing Difficult Meetings",
    "start": "2016-03-29T12:30:00"
  },
  {
    "lon": -0.09352999999998701,
    "lat": 51.480886,
    "end": "2016-03-30T13:00:00",
    "name": "Offering One-off Volunteering Opportunities",
    "start": "2016-03-30T11:00:00"
  },
  {
    "lon": -81.22572689999998,
    "lat": 42.9604497,
    "end": "2016-03-30T19:45:00",
    "name": "London, ON Extra Life Guild Kickoff 2016",
    "start": "2016-03-30T18:15:00"
  },
  {
    "lon": -0.07201889999998912,
    "lat": 51.5209249,
    "end": "2016-03-30T21:30:00",
    "name": "Indigenous Revival",
    "start": "2016-03-30T19:00:00"
  },
  {
    "lon": -0.10194799999999304,
    "lat": 51.5416319,
    "end": "2016-03-23T13:00:00",
    "name": "Islington Refugee Forum- Free training on Health and Safety Essentials",
    "start": "2016-03-23T10:00:00"
  },
  {
    "lon": -0.05525549999993018,
    "lat": 51.5420799,
    "end": "2016-03-23T16:00:00",
    "name": "DMD Pathfinders Social Event and Radio Show",
    "start": "2016-03-23T11:30:00"
  },
  {
    "lon": -0.09295539999993707,
    "lat": 51.5162766,
    "end": "2016-03-24T12:30:00",
    "name": "7 mistakes to avoid when starting your business",
    "start": "2016-03-24T10:30:00"
  },
  {
    "lon": -0.18530199999997876,
    "lat": 51.537477,
    "end": "2016-03-24T15:00:00",
    "name": "Talking Art - James Russell Cant",
    "start": "2016-03-24T14:00:00"
  },
  {
    "lon": -0.16770420000000286,
    "lat": 51.4941837,
    "end": "2016-03-26T16:00:00",
    "name": "Get Your Knit On with WATG @ Gazelli House, London",
    "start": "2016-03-26T14:00:00"
  },
  {
    "lon": -0.18839090000005854,
    "lat": 51.4460352,
    "end": "2016-03-26T20:00:00",
    "name": "Housing Your Shakti",
    "start": "2016-03-26T15:30:00"
  },
  {
    "lon": -0.12939440000002378,
    "lat": 51.5151762,
    "end": "2016-03-26T22:00:00",
    "name": "Paint Jam Night *BOWIE* - art & music extravaganza (Soho) - in a pop-up art studio + DJ/Bar",
    "start": "2016-03-26T19:00:00"
  },
  {
    "lon": -0.07582130000002962,
    "lat": 51.5446591,
    "end": "2016-03-27T03:00:00",
    "name": "Transister goes macho",
    "start": "2016-03-26T22:00:00"
  },
  {
    "lon": -0.06143299999996543,
    "lat": 51.526287,
    "end": "2016-03-27T20:00:00",
    "name": "Emergency-fundraising event for somaliland drought appeal",
    "start": "2016-03-27T16:00:00"
  },
  {
    "lon": -0.104,
    "lat": 51.5074,
    "end": "2016-03-28T04:00:00",
    "name": "Rave Of Thrones London w/ Hodor (Kristian Nairn)",
    "start": "2016-03-27T21:00:00"
  },
  {
    "lon": -0.1228788999999324,
    "lat": 51.4869578,
    "end": "2016-03-28T06:00:00",
    "name": "Bootylicious Easter Sunday Bash",
    "start": "2016-03-27T23:00:00"
  },
  {
    "lon": -0.1426178000000391,
    "lat": 51.519821,
    "end": "2016-03-29T21:30:00",
    "name": "Keziah CONNECTIONS March 2016 Networking Drinks Evening - with Colour Riot Nails",
    "start": "2016-03-29T18:30:00"
  },
  {
    "lon": -0.09622890000002826,
    "lat": 51.5265541,
    "end": "2016-03-30T15:30:00",
    "name": "Cold Calling for New Business Masterclass - LONDON",
    "start": "2016-03-30T09:30:00"
  },
  {
    "lon": -0.04037449999998444,
    "lat": 51.5240671,
    "end": "2016-03-30T17:00:00",
    "name": "Worlds of Witchcraft",
    "start": "2016-03-30T13:00:00"
  },
  {
    "lon": -0.12813489999996364,
    "lat": 51.5003845,
    "end": "2016-03-30T19:00:00",
    "name": "UKLSA National Advocacy Competition 2015/16 Grand Final",
    "start": "2016-03-30T16:00:00"
  },
  {
    "lon": -0.13084389999994528,
    "lat": 51.4968942,
    "end": "2016-03-23T16:30:00",
    "name": "The Essentials of Speechwriting London Spring 2016",
    "start": "2016-03-23T10:00:00"
  },
  {
    "lon": 0.06257640000001174,
    "lat": 51.4805275,
    "end": "2016-03-23T16:00:00",
    "name": "Setting up a Food Business",
    "start": "2016-03-23T10:00:00"
  },
  {
    "lon": -0.11523409999995238,
    "lat": 51.50330710000001,
    "end": "2016-03-23T14:00:00",
    "name": "Do-it.org Workshop",
    "start": "2016-03-23T11:00:00"
  },
  {
    "lon": -0.11043319999998857,
    "lat": 51.5523348,
    "end": "2016-03-23T14:00:00",
    "name": "Holloway campus tour",
    "start": "2016-03-23T13:00:00"
  },
  {
    "lon": -0.23041349999994054,
    "lat": 51.5688464,
    "end": "2016-03-23T17:30:00",
    "name": "LDeX1 Open Day",
    "start": "2016-03-23T15:00:00"
  },
  {
    "lon": -0.12767589999998563,
    "lat": 51.5299717,
    "end": "2016-03-23T21:00:00",
    "name": "Combine PR on a budget with Twitter Power to Raise Your Profile in 2016 Workshop part 2",
    "start": "2016-03-23T18:00:00"
  },
  {
    "lon": -0.05492100000003575,
    "lat": 51.534794,
    "end": "2016-03-23T20:30:00",
    "name": "Introduction to 3D Printing",
    "start": "2016-03-23T18:30:00"
  },
  {
    "lon": -0.09554669999999987,
    "lat": 51.4684537,
    "end": "2016-03-24T15:30:00",
    "name": "King’s Critical Care - Primary Health Care Collaborative Meeting",
    "start": "2016-03-24T12:00:00"
  },
  {
    "lon": -0.1728,
    "lat": 51.4047,
    "end": "2016-03-24T19:00:00",
    "name": "International Development in Technology and Education",
    "start": "2016-03-24T18:00:00"
  },
  {
    "lon": -0.22409079999999904,
    "lat": 51.509614,
    "end": "2016-03-24T21:00:00",
    "name": "I AM LDN CROWDFUNDING DRINKS",
    "start": "2016-03-24T18:00:00"
  },
  {
    "lon": -0.0772848999999951,
    "lat": 51.5254162,
    "end": "2016-03-26T17:00:00",
    "name": "Meticulous Ink Hand Lettering Workshops at The Ace Hotel, London.",
    "start": "2016-03-26T10:30:00"
  },
  {
    "lon": -0.12200010000003658,
    "lat": 51.53636849999999,
    "end": "2016-03-26T23:00:00",
    "name": "Art Space Fest",
    "start": "2016-03-26T15:00:00"
  },
  {
    "lon": -0.24929169999995793,
    "lat": 51.6570664,
    "end": "2016-03-27T19:00:00",
    "name": "Myrtle & Olive Easter Food Tasting Event",
    "start": "2016-03-27T16:00:00"
  },
  {
    "lon": -0.02213299999993978,
    "lat": 51.47200009999999,
    "end": "2016-03-29T15:00:00",
    "name": "Lewisham BME Network - How to Work in Partnership",
    "start": "2016-03-29T10:30:00"
  },
  {
    "lon": -0.12958019999996395,
    "lat": 51.5070111,
    "end": "2016-03-29T17:00:00",
    "name": "Creative Europe Application Workshop for Literary Translation - London",
    "start": "2016-03-29T14:00:00"
  },
  {
    "lon": -0.081504099999961,
    "lat": 51.5245391,
    "end": "2016-03-29T20:30:00",
    "name": "geo-fleur Terrarium Workshop at Book Club",
    "start": "2016-03-29T19:00:00"
  },
  {
    "lon": -0.0593836000000465,
    "lat": 51.5331884,
    "end": "2016-03-30T09:30:00",
    "name": "Bloom Morning Gloryville Rave!",
    "start": "2016-03-30T06:30:00"
  },
  {
    "lon": -0.12737479999998413,
    "lat": 51.5297852,
    "end": "2016-03-23T13:00:00",
    "name": "Introduction to Social Enterprise",
    "start": "2016-03-23T10:00:00"
  },
  {
    "lon": -0.16814820000001873,
    "lat": 51.48742559999999,
    "end": "2016-03-24T20:00:00",
    "name": "Ladies' Easter Special: Sorry Cancelled due to venue muddle",
    "start": "2016-03-24T18:00:00"
  },
  {
    "lon": -0.11862599999994927,
    "lat": 51.4867363,
    "end": "2016-03-25T20:00:00",
    "name": "Passion & Prayer - sacred music for Easter",
    "start": "2016-03-25T18:30:00"
  },
  {
    "lon": -0.1787893000000622,
    "lat": 51.51177620000001,
    "end": "2016-03-26T17:00:00",
    "name": "Psychic Protection: Cleanse, Clear and Uplift Your Energy Fields",
    "start": "2016-03-26T10:00:00"
  },
  {
    "lon": -0.08522840000000542,
    "lat": 51.5515313,
    "end": "2016-03-26T16:00:00",
    "name": "Top Dog",
    "start": "2016-03-26T11:00:00"
  },
  {
    "lon": -0.12491279999994731,
    "lat": 51.4810063,
    "end": "2016-03-26T12:30:00",
    "name": "Monthly Transformational Breath ® Big Breath Company Meet Up Group",
    "start": "2016-03-26T11:00:00"
  },
  {
    "lon": -0.10858800000005431,
    "lat": 51.50173700000001,
    "end": "2016-03-26T15:00:00",
    "name": "Business Workshop For Girls! #London",
    "start": "2016-03-26T13:00:00"
  },
  {
    "lon": -0.1616034999999556,
    "lat": 51.5267103,
    "end": "2016-03-26T17:00:00",
    "name": "Web Projects for Teachers",
    "start": "2016-03-26T14:00:00"
  },
  {
    "lon": -0.19140809999998964,
    "lat": 51.50104,
    "end": "2016-03-27T03:00:00",
    "name": "Night out at Roof Gardens with COMPLIMENTARY entry and welcome drink",
    "start": "2016-03-26T19:00:00"
  },
  {
    "lon": -0.12282079999999951,
    "lat": 51.4860184,
    "end": "2016-03-26T23:00:00",
    "name": "Sassy Saturdays Reserection",
    "start": "2016-03-26T20:00:00"
  },
  {
    "lon": -0.14596480000000156,
    "lat": 51.4960272,
    "end": "2016-03-27T17:00:00",
    "name": "A Bibulous Tour of Belgravia (via its pubs)",
    "start": "2016-03-27T14:00:00"
  },
  {
    "lon": -0.130334,
    "lat": 51.499032,
    "end": "2016-03-30T15:30:00",
    "name": "Making an Impact through Your Partnership - London",
    "start": "2016-03-30T09:30:00"
  },
  {
    "lon": -0.08094019999998636,
    "lat": 51.5161743,
    "end": "2016-03-30T13:00:00",
    "name": "Salesforce Training",
    "start": "2016-03-30T09:30:00"
  },
  {
    "lon": -0.08020799999997053,
    "lat": 51.525999,
    "end": "2016-03-30T20:00:00",
    "name": "Whisky Wednesday Masterclass #3: Ardbeg",
    "start": "2016-03-30T18:30:00"
  },
  {
    "lon": -0.06997479999995448,
    "lat": 51.5156447,
    "end": "2016-11-30T12:00:00",
    "name": "FdA Furniture (W2JM)",
    "start": "2016-03-23T10:00:00"
  },
  {
    "lon": -81.14029049999999,
    "lat": 43.00680939999999,
    "end": "2016-03-24T17:00:00",
    "name": "Safe Hiker Program (03/23/16) London",
    "start": "2016-03-23T12:00:00"
  },
  {
    "lon": -0.00360309999996388,
    "lat": 51.5314949,
    "end": "2016-03-23T20:00:00",
    "name": "Glow in the Dark Egg Hunt",
    "start": "2016-03-23T18:00:00"
  },
  {
    "lon": -0.14028659999996762,
    "lat": 51.52073559999999,
    "end": "2016-03-23T20:00:00",
    "name": "Computer Science Careers Panel: Meet Recent Alumni",
    "start": "2016-03-23T18:00:00"
  },
  {
    "lon": -0.14707229999999072,
    "lat": 51.5142698,
    "end": "2016-03-23T21:00:00",
    "name": "Dinner, Drinks & Discovery: The Budget and You",
    "start": "2016-03-23T19:00:00"
  },
  {
    "lon": -0.11835099999996146,
    "lat": 51.519668,
    "end": "2016-03-23T21:00:00",
    "name": "The Testing Ground 4 smile inducing new dance & performance",
    "start": "2016-03-23T19:45:00"
  },
  {
    "lon": -0.10368310000001202,
    "lat": 51.5273015,
    "end": "2016-03-24T16:30:00",
    "name": "Meet our Visiting Scholars",
    "start": "2016-03-24T15:30:00"
  },
  {
    "lon": -0.10987790000001496,
    "lat": 51.5218325,
    "end": "2016-03-24T20:00:00",
    "name": "CelRobox 3D Printer Training - Free at the iMakr Store",
    "start": "2016-03-24T18:30:00"
  },
  {
    "lon": -0.19968429999994441,
    "lat": 51.5414999,
    "end": "2016-04-07T21:00:00",
    "name": "The Vision & Outlook of a Believer",
    "start": "2016-03-24T19:00:00"
  },
  {
    "lon": -0.08284100000003036,
    "lat": 51.525579,
    "end": "2016-03-25T17:00:00",
    "name": "The Robin Collective: Willy Wonka Extravaganza",
    "start": "2016-03-25T15:30:00"
  },
  {
    "lon": -0.0190532000000303,
    "lat": 51.4465309,
    "end": "2016-03-26T03:00:00",
    "name": "DIVINE EASTER EXTRAVAGANZA",
    "start": "2016-03-25T22:00:00"
  },
  {
    "lon": -0.08964579999997113,
    "lat": 51.52155279999999,
    "end": "2016-03-26T13:00:00",
    "name": "EASTER SPECIAL AFROBEATS CIRCUIT WORKOUT - Fitness Class - Saturday 26 March",
    "start": "2016-03-26T12:00:00"
  },
  {
    "lon": -0.02277579999997669,
    "lat": 51.542626,
    "end": "2016-03-28T00:00:00",
    "name": "JUMA: Manilla & Friends Easter Sunday (FREE)",
    "start": "2016-03-27T13:00:00"
  },
  {
    "lon": -0.1082082000000355,
    "lat": 51.5180096,
    "end": "2016-03-27T16:00:00",
    "name": "Professional Muslim Networking In Holborn",
    "start": "2016-03-27T13:30:00"
  },
  {
    "lon": -0.12775829999998223,
    "lat": 51.5073509,
    "end": "2016-03-27T22:00:00",
    "name": "Community Football Program Within M25",
    "start": "2016-03-27T19:00:00"
  },
  {
    "lon": -0.02339419999998426,
    "lat": 51.4737051,
    "end": "2016-03-28T18:00:00",
    "name": "Monday's at Mimi's sponsored by Mary Kay",
    "start": "2016-03-28T15:00:00"
  },
  {
    "lon": -0.14233009999998103,
    "lat": 51.5161965,
    "end": "2016-03-29T19:30:00",
    "name": "#neverstoplondon Mountain Athletics Weekly Session",
    "start": "2016-03-29T18:15:00"
  },
  {
    "lon": -0.0762201999999661,
    "lat": 51.5241377,
    "end": "2016-03-29T20:30:00",
    "name": "Hogyan Tovább? | Tehetségek Klubja - Vitaest #NewGenCentre #brainstorming",
    "start": "2016-03-29T19:00:00"
  },
  {
    "lon": -0.05279199999995399,
    "lat": 51.5208897,
    "end": "2016-03-30T09:30:00",
    "name": "SheWorx Breakfast for Female Entrepreneurs w/ Leila Rastegar Zegna, Mia Bennett, & Lu Li",
    "start": "2016-03-30T08:00:00"
  },
  {
    "lon": -0.084817,
    "lat": 51.522726,
    "end": "2016-03-30T17:00:00",
    "name": "#GoFundYourself: Funding Bootcamp For Startups",
    "start": "2016-03-30T13:00:00"
  },
  {
    "lon": -0.11072200000000976,
    "lat": 51.551606,
    "end": "2016-03-30T16:00:00",
    "name": "UCAS application workshop",
    "start": "2016-03-30T14:00:00"
  },
  {
    "lon": -0.10278310000001056,
    "lat": 51.519084,
    "end": "2016-03-30T20:30:00",
    "name": "Fear Busters Masterclass",
    "start": "2016-03-30T18:30:00"
  },
  {
    "lon": -81.243,
    "lat": 42.969,
    "end": "2016-04-13T22:00:00",
    "name": "Shut The Front Door: Improv 104 - Starting April 6 2016",
    "start": "2016-03-30T19:00:00"
  },
  {
    "lon": -0.08150399999999536,
    "lat": 51.524539,
    "end": "2016-03-30T22:00:00",
    "name": "'That's What She Said' special with Hsiao-Hung Pai",
    "start": "2016-03-30T19:00:00"
  },
  {
    "lon": -0.2766860000000406,
    "lat": 51.50848440000001,
    "end": "2016-03-23T16:00:00",
    "name": "Keeping up to date: improving vocational teaching, learning and assessment",
    "start": "2016-03-23T10:00:00"
  },
  {
    "lon": -0.1238072999999531,
    "lat": 51.5105876,
    "end": "2016-03-24T17:30:00",
    "name": "Developing Ideas for Children's TV - London",
    "start": "2016-03-23T10:00:00"
  },
  {
    "lon": -0.10170110000001387,
    "lat": 51.4977017,
    "end": "2016-03-23T16:30:00",
    "name": "Ignite your ideas: Health & Technology",
    "start": "2016-03-23T13:30:00"
  },
  {
    "lon": -0.11999609999998029,
    "lat": 51.5159072,
    "end": "2016-03-23T16:00:00",
    "name": "How to Get the Best Jobs and Internships Employment Seminar London",
    "start": "2016-03-23T14:00:00"
  },
  {
    "lon": -0.1943979999999783,
    "lat": 51.501382,
    "end": "2016-03-23T16:30:00",
    "name": "Business Online Resources From Your Library! - FREE",
    "start": "2016-03-23T15:00:00"
  },
  {
    "lon": -0.09765279999999166,
    "lat": 51.5201667,
    "end": "2016-03-23T17:00:00",
    "name": "Meet the Faculty Open Evening",
    "start": "2016-03-23T16:00:00"
  },
  {
    "lon": -0.26648529999999937,
    "lat": 51.53456569999999,
    "end": "2016-03-23T20:00:00",
    "name": "Be part of audience on Kalima Horra show hosted by George Galloway (Al Mayadeen TV) - in London",
    "start": "2016-03-23T16:00:00"
  },
  {
    "lon": -0.12522230000001855,
    "lat": 51.5179795,
    "end": "2016-03-23T20:30:00",
    "name": "Slavic Easter Egg Decoration Workshop",
    "start": "2016-03-23T18:00:00"
  },
  {
    "lon": -0.14150500000005195,
    "lat": 51.551781,
    "end": "2016-03-23T22:30:00",
    "name": "Maker's Mark Wax Dipping & Cocktail Masterclass",
    "start": "2016-03-23T19:30:00"
  },
  {
    "lon": -0.12959069999999429,
    "lat": 51.5105358,
    "end": "2016-03-23T23:00:00",
    "name": "Viviana Zarbo - A Personal Tribute to Billie Holiday",
    "start": "2016-03-23T20:00:00"
  },
  {
    "lon": -0.11055260000000544,
    "lat": 51.4867077,
    "end": "2016-03-24T16:30:00",
    "name": "Practical skills in risk Management",
    "start": "2016-03-24T10:00:00"
  },
  {
    "lon": -0.12686199999996006,
    "lat": 51.52872499999999,
    "end": "2016-03-24T21:30:00",
    "name": "Premier Property Club - Kings Cross London",
    "start": "2016-03-24T18:30:00"
  },
  {
    "lon": -0.10465079999994487,
    "lat": 51.5281876,
    "end": "2016-03-24T20:30:00",
    "name": "Martin Miller's Gin X Fever-Tree Tasting & Talk",
    "start": "2016-03-24T19:00:00"
  },
  {
    "lon": -0.19168119999994815,
    "lat": 51.5367138,
    "end": "2016-03-25T01:30:00",
    "name": "Wurd Sessions LIVE",
    "start": "2016-03-24T19:00:00"
  },
  {
    "lon": 0.003103799999962575,
    "lat": 51.5017382,
    "end": "2016-03-24T21:00:00",
    "name": "Thursday Night Live - A night of music and comedy",
    "start": "2016-03-24T19:30:00"
  },
  {
    "lon": -0.05592290000004141,
    "lat": 51.53468889999999,
    "end": "2016-03-24T23:00:00",
    "name": "The 7-Minute Itch Deux",
    "start": "2016-03-24T19:30:00"
  },
  {
    "lon": -0.0185458999999355,
    "lat": 51.4655022,
    "end": "2016-03-25T19:00:00",
    "name": "Anthony Cut's meets Charles M'Biro London",
    "start": "2016-03-25T10:00:00"
  },
  {
    "lon": -0.10889799999995375,
    "lat": 51.594443,
    "end": "2016-03-29T17:00:00",
    "name": "Celebrate the launch of Disney’s Zootropolis at The Mall Wood Green",
    "start": "2016-03-25T12:00:00"
  },
  {
    "lon": -0.27393289999997705,
    "lat": 51.54465700000001,
    "end": "2016-03-26T18:00:00",
    "name": "Screen Printing Paper and Textiles for Begginers Saturdays",
    "start": "2016-03-26T10:00:00"
  },
  {
    "lon": -0.11669210000002295,
    "lat": 51.5057798,
    "end": "2016-03-26T13:00:00",
    "name": "Stressed OUT? (A shocking solution that no one talks about) Free Talk",
    "start": "2016-03-26T10:30:00"
  },
  {
    "lon": -0.08756149999999252,
    "lat": 51.52567029999999,
    "end": "2016-03-26T13:00:00",
    "name": "Poverty, Preaching and Philanthropy",
    "start": "2016-03-26T11:00:00"
  },
  {
    "lon": -0.08537249999994856,
    "lat": 51.52261309999999,
    "end": "2016-03-26T16:00:00",
    "name": "Master Your Conversation Skills With Women - Workshop",
    "start": "2016-03-26T11:00:00"
  },
  {
    "lon": -0.1427353999999923,
    "lat": 51.5225472,
    "end": "2016-03-26T18:00:00",
    "name": "Facebook. How to use Facebook for business FREE.",
    "start": "2016-03-26T11:30:00"
  },
  {
    "lon": -0.13141749999999774,
    "lat": 51.5112509,
    "end": "2016-03-26T18:30:00",
    "name": "Soho - A Foodie & Bar Themed History Tour",
    "start": "2016-03-26T16:00:00"
  },
  {
    "lon": -0.11642600000004677,
    "lat": 51.498482,
    "end": "2016-03-27T00:00:00",
    "name": "FUNK-A: An Intimate evening of spoken-word, live music and cafe improvisation",
    "start": "2016-03-26T19:30:00"
  },
  {
    "lon": -0.26826600000003964,
    "lat": 51.5069143,
    "end": "2016-03-27T17:00:00",
    "name": "The Nursery Elective Class: Chatting away",
    "start": "2016-03-27T11:00:00"
  },
  {
    "lon": -0.01498059999994438,
    "lat": 51.51164989999999,
    "end": "2016-03-27T20:00:00",
    "name": "Liquid Love - Spring",
    "start": "2016-03-27T17:00:00"
  },
  {
    "lon": -0.14608339999995223,
    "lat": 51.5404555,
    "end": "2016-03-28T03:00:00",
    "name": "\"EPIC\"",
    "start": "2016-03-27T19:30:00"
  },
  {
    "lon": -0.11392420000004222,
    "lat": 51.50483879999999,
    "end": "2016-03-27T22:30:00",
    "name": "Batman v Superman: Dawn of Justice - The IMAX Experience",
    "start": "2016-03-27T19:30:00"
  },
  {
    "lon": -0.12193409999997584,
    "lat": 51.5073477,
    "end": "2016-03-28T04:00:00",
    "name": "StylishNights Bank Hol Party",
    "start": "2016-03-27T22:00:00"
  },
  {
    "lon": -0.1304698000000144,
    "lat": 51.5174235,
    "end": "2016-03-28T22:30:00",
    "name": "OPEN MIC at St Giles Casino",
    "start": "2016-03-28T19:00:00"
  },
  {
    "lon": -0.11603900000000067,
    "lat": 51.501403,
    "end": "2016-03-31T21:00:00",
    "name": "INTERNET MARKETING WORKSHOP,LONDON-U.K - FREE Ticket",
    "start": "2016-03-29T12:00:00"
  },
  {
    "lon": -0.11603900000000067,
    "lat": 51.501403,
    "end": "2016-03-31T21:00:00",
    "name": "How To Make Money Online - Internet Marketing Seminar - London - FREE TICKET",
    "start": "2016-03-29T12:30:00"
  },
  {
    "lon": -0.14677389999997104,
    "lat": 51.5415881,
    "end": "2016-04-01T21:00:00",
    "name": "Agua Piedra Mezcal launch week",
    "start": "2016-03-29T19:30:00"
  },
  {
    "lon": -0.11531690000003891,
    "lat": 51.5116228,
    "end": "2016-03-30T19:00:00",
    "name": "Oral History Training for King's students",
    "start": "2016-03-30T18:00:00"
  },
  {
    "lon": -0.08069299999999657,
    "lat": 51.527213,
    "end": "2016-03-30T21:30:00",
    "name": "Meal Ticket: Modern Love",
    "start": "2016-03-30T18:30:00"
  },
  {
    "lon": 0.0711182000000008,
    "lat": 51.5043865,
    "end": "2016-03-31T01:00:00",
    "name": "LIVE! at TJ’s | Norell & The Dub Factory . Veda Black . Double Aces",
    "start": "2016-03-30T19:00:00"
  },
  {
    "lon": -0.13529659999994692,
    "lat": 51.5174643,
    "end": "2016-03-30T22:00:00",
    "name": "Aikyn & Daulet Bolatov",
    "start": "2016-03-30T19:00:00"
  },
  {
    "lon": 0.06386739999993551,
    "lat": 51.5078053,
    "end": "2016-03-30T21:00:00",
    "name": "The Encounter : A night of Worship",
    "start": "2016-03-30T19:00:00"
  },
  {
    "lon": -81.24359600000003,
    "lat": 42.979672,
    "end": "2016-03-30T21:00:00",
    "name": "Understanding Poverty in London",
    "start": "2016-03-30T19:00:00"
  },
  {
    "lon": -0.08630049999999301,
    "lat": 51.5044184,
    "end": "2016-03-24T17:00:00",
    "name": "Social Media Training - The Shard, London - March 2016",
    "start": "2016-03-23T10:00:00"
  },
  {
    "lon": -0.09295539999993707,
    "lat": 51.5162766,
    "end": "2016-03-23T12:00:00",
    "name": "NEW! Introduction to Chinese business language and etiquette",
    "start": "2016-03-23T10:30:00"
  },
  {
    "lon": -0.10009660000002896,
    "lat": 51.4966708,
    "end": "2016-03-23T11:30:00",
    "name": "Introduction to Mendeley",
    "start": "2016-03-23T11:00:00"
  },
  {
    "lon": -0.13731840000002649,
    "lat": 51.52902479999999,
    "end": "2016-03-23T19:30:00",
    "name": "What is next for Umbrella Companies ?  - Recruitment Industry",
    "start": "2016-03-23T18:00:00"
  },
  {
    "lon": -0.13892710000004627,
    "lat": 51.5228158,
    "end": "2016-03-23T20:30:00",
    "name": "Laughter Club-improve playfulnes,Release Tension-Anxiety Expe­ct Lot of laugh",
    "start": "2016-03-23T18:30:00"
  },
  {
    "lon": -0.08714599999996153,
    "lat": 51.527668,
    "end": "2016-03-23T20:00:00",
    "name": "Entrepreneurs Anonymous: Structure as You Scale & Goal Setting",
    "start": "2016-03-23T18:30:00"
  },
  {
    "lon": -0.07645300000001498,
    "lat": 51.52351700000001,
    "end": "2016-03-23T21:00:00",
    "name": "Easter Themed Chocolate Workshop",
    "start": "2016-03-23T18:30:00"
  },
  {
    "lon": -0.08655499999997573,
    "lat": 51.51906,
    "end": "2016-03-23T21:30:00",
    "name": "Le Chiffre LIVE! SPIES Society presents Annie Bea at South Place Hotel!",
    "start": "2016-03-23T18:30:00"
  },
  {
    "lon": -0.13087710000002062,
    "lat": 51.514055,
    "end": "2016-03-24T21:00:00",
    "name": "Union Trade (Painting & Sculpture )",
    "start": "2016-03-24T18:00:00"
  },
  {
    "lon": -0.07258590000003551,
    "lat": 51.52021309999999,
    "end": "2016-03-26T22:00:00",
    "name": "Baul & Vaishnav Music Festival: Kobi Nazrul Centre",
    "start": "2016-03-26T18:00:00"
  },
  {
    "lon": -0.08937689999993381,
    "lat": 51.5284747,
    "end": "2016-03-27T15:00:00",
    "name": "Wominar III",
    "start": "2016-03-27T12:00:00"
  },
  {
    "lon": -0.1288604999999734,
    "lat": 51.527719,
    "end": "2016-03-27T16:00:00",
    "name": "Create Your Wealth and Improve Your Health!",
    "start": "2016-03-27T14:00:00"
  },
  {
    "lon": -0.1123569999999745,
    "lat": 51.465205,
    "end": "2016-03-27T18:00:00",
    "name": "Superman: Black History Movie Breakdown",
    "start": "2016-03-27T15:00:00"
  },
  {
    "lon": -0.0513332000000446,
    "lat": 51.5449864,
    "end": "2016-04-08T16:00:00",
    "name": "Easter Revision Sessions - 11plus, GCSE and A-Level exams (#Secrets2Success)",
    "start": "2016-03-28T11:00:00"
  },
  {
    "lon": -0.19496809999998277,
    "lat": 51.523557,
    "end": "2016-03-29T11:30:00",
    "name": "Marbling Madness-Age 3-5 years- Tuesday 29th March- 10.00-11.30am.",
    "start": "2016-03-29T10:00:00"
  },
  {
    "lon": -0.11603900000000067,
    "lat": 51.501403,
    "end": "2016-03-31T20:30:00",
    "name": "INTERNET MARKETING WORKSHOP,LONDON-UK - FREE Ticket",
    "start": "2016-03-29T12:30:00"
  },
  {
    "lon": -0.05180540000003475,
    "lat": 51.5209849,
    "end": "2016-03-29T20:00:00",
    "name": "To cloud or not to cloud?",
    "start": "2016-03-29T18:00:00"
  },
  {
    "lon": -0.08573599999999715,
    "lat": 51.52543379999999,
    "end": "2016-03-29T23:00:00",
    "name": "Smif-N-Wessun",
    "start": "2016-03-29T19:00:00"
  },